"","Region","District","FacilityName","Type","Town","Ownership","Latitude","Longitude","newColumn + 42","newColumn"
"1","Ashanti","Offinso North","A.M.E Zion Clinic","Clinic","Afrancho","CHAG",7.40801,-1.96317,49.40801,49.40801
"2","Ashanti","Bekwai Municipal","Abenkyiman Clinic","Clinic","Anwiankwanta","Private",6.46312,-1.58592,48.46312,48.46312
"3","Ashanti","Adansi North","Aboabo Health Centre","Health Centre","Aboabo No 2","Government",6.22393,-1.34982,48.22393,48.22393
"4","Ashanti","Afigya-Kwabre","Aboabogya Health Centre","Health Centre","Aboabogya","Government",6.84177,-1.61098,48.84177,48.84177
"5","Ashanti","Kwabre","Aboaso Health Centre","Health Centre","Aboaso","Government",6.84177,-1.61098,48.84177,48.84177
"6","Ashanti","Offinso North","Aboffour Health Centre","Health Centre","Aboffour","Government",7.12986,-1.73294,49.12986,49.12986
"7","Ashanti","Atwima-Nwabiagya","Abuakwa Maternity Home","Maternity Home","Abuakwa","Private",7,-2,49,49
"8","Ashanti","Atwima-Kwanwoma","Aburaso Methodist clinic","Clinic","Aburaso","CHAG",6.66133,-1.67662,48.66133,48.66133
"9","Ashanti","Ejisu-Juaben Municipal","Achiase Health Centre","Health Centre","Achiase","Government",6.45543,-1.31004,48.45543,48.45543
"10","Ashanti","Mampong Municipal","Adidwan Health Centre","Health Centre","Adidwan","Government",7.25163,-1.40278,49.25163,49.25163
"11","Ashanti","Amansie West","Adimposo CHPS","CHPS","Adimposo","Government",6.33659,-1.92588,48.33659,48.33659
"12","Ashanti","Asante-Akim North Municipal","Adom Hospital","Hospital","Akratiebesa","Private",6.61879,-1.19202,48.61879,48.61879
"13","Ashanti","Ahafo-Ano South","Adom Maternity Home","Maternity Home","Adinyana","Private",6.88364,-1.87334,48.88364,48.88364
"14","Ashanti","Afigya-Kwabre","Adwumakase Kese Health Centre","Health Centre","Adwumakase Kese","Government",6.80813,-1.53933,48.80813,48.80813
"15","Ashanti","Sekyere South","Afamaso Maternity Home","Maternity Home","Afamaso","Private",6.94912,-1.50873,48.94912,48.94912
"16","Ashanti","Sekyere Central","Aframso Health Centre","Health Centre","Aframso No.3","Government",7.14472,-1.12162,49.14472,49.14472
"17","Ashanti","Afigya-Kwabre","Afrancho Health Centre","Health Centre","Afrancho","Government",6.81527,-1.59589,48.81527,48.81527
"18","Ashanti","Asante-Akim North Municipal","Agogo Presby Hospital","Hospital","Agogo","CHAG",6.79618,-1.08529,48.79618,48.79618
"19","Ashanti","Sekyere South","Agona Health Centre","Health Centre","Agona","Government",6.93605,-1.49759,48.93605,48.93605
"20","Ashanti","Ejisu-Juaben Municipal","Agyenkwa Clinic","Clinic","Hwireso","Private",6.67522,-1.38159,48.67522,48.67522
"21","Ashanti","Obuasi Municipal","Agyenkwa Clinic","Clinic","New  Estate-Obuasi","Private",6.20898,-1.67103,48.20898,48.20898
"22","Ashanti","Atwima-Kwanwoma","Ahenema kokoben Health Centre","Health Centre","Ahenema kokoben","Government",6.62597,-1.64978,48.62597,48.62597
"23","Ashanti","Afigya-Kwabre","Ahenkro Health Centre","Health Centre","Ahenkro","Government",6.87155,-1.64009,48.87155,48.87155
"24","Ashanti","Sekyere East","Ahmadiya Muslim Hospital","Hospital","Effiduase","Private",6.84534,-1.38366,48.84534,48.84534
"25","Ashanti","Bekwai Municipal","Ahmadiyaa Mission Hospital","Hospital","Kokofu","Private",6.50986,-1.53649,48.50986,48.50986
"26","Ashanti","Bekwai Municipal","Ahwene Memorial Hospital","Hospital","Bekwai","Private",6.45491,-1.57071,48.45491,48.45491
"27","Ashanti","Adansi South","Aim High Clinic","Clinic","Subin Camp","Private",5.96717,-1.44993,47.96717,47.96717
"28","Ashanti","Sekyere East","Akokuaso Health Centre","Health Centre","Akokuaso","Government",6.85355,-1.33583,48.85355,48.85355
"29","Ashanti","Bekwai Municipal","Akomaa Memorial Hospital","Hospital","Kortwia","CHAG",6.43966,-1.53837,48.43966,48.43966
"30","Ashanti","Offinso North","Akomadan Health Centre","Health Centre","Akomadan zongo","Government",7.40581,-1.96072,49.40581,49.40581
"31","Ashanti","Adansi North","Akrofrom Clinic","Clinic","New Akrofrom","Private",6.15348,-1.47621,48.15348,48.15348
"32","Ashanti","Amansie Central","Akrofrom Community Clinic","Clinic","Akrofrom","Government",6.39651,-1.60783,48.39651,48.39651
"33","Ashanti","Adansi South","Akrofrom Health Centre","Health Centre","Akrofrom","Government",6.12385,-1.65387,48.12385,48.12385
"34","Ashanti","Adansi North","Akrokerri Health Centre","Health Centre","Akrokerri","Government",6.29513,-1.63224,48.29513,48.29513
"35","Ashanti","Atwima-Nwabiagya","Akropong Health Centre","Health Centre","Akropong","Government",7,-2,49,49
"36","Ashanti","Atwima-Nwabiagya","Akropong Maternity Home","Maternity Home","Akropong","Private",7,-2,49,49
"37","Ashanti","Adansi South","Akutreso Health Centre","Health Centre","Akutreso","Government",6.09619,-1.29292,48.09619,48.09619
"38","Ashanti","Ahafo-Ano North","Akwasiase Dressing Station","Clinic","Akwasiase","Quasi-Government",6.99498,-2.19887,48.99498,48.99498
"39","Ashanti","Ahafo-Ano North","Alice Memorial Maternity Clinic","Maternity Home","Tepa","Private",6.99961,-2.17134,48.99961,48.99961
"40","Ashanti","Obuasi Municipal","All Souls Clinic","Clinic","Akaporiso","Private",6.19852,-1.62881,48.19852,48.19852
"41","Ashanti","Adansi South","Allen Health Clinic","Clinic","Wamasi","Government",6.08691,-1.69553,48.08691,48.08691
"42","Ashanti","Obuasi Municipal","Amansan Clinic","Clinic","Aboagye Krom","Private",6.19128,-1.65044,48.19128,48.19128
"43","Ashanti","Asante-Akim North Municipal","Amantenaman Health Centre","Health Centre","Nyinamponase","Government",6.77005,-1.16254,48.77005,48.77005
"44","Ashanti","Ejisu-Juaben Municipal","Amponsah Konadu Memorial Maternity Home","Maternity Home","Bonwire","Private",6.79262,-1.47187,48.79262,48.79262
"45","Ashanti","Adansi South","Ampunyasi Health Centre","Health Centre","Ampunyasi","Government",6.05519,-1.73677,48.05519,48.05519
"46","Ashanti","Ahafo-Ano North","Anane Aya Maternity Home","Maternity Home","Akwasiase","Private",6.99542,-2.19993,48.99542,48.99542
"47","Ashanti","Asante-Akim North Municipal","Ananekrom Health Centre","Health Centre","Ananekrom","Government",6.91527,-1.01533,48.91527,48.91527
"48","Ashanti","Bosomtwe","Anglican (Mobile) Eye Clinic","Clinic","Jachie","CHAG",6.56615,-1.52066,48.56615,48.56615
"49","Ashanti","Bosomtwe","Atonso/Agogo Fejiase clinic","Clinic","Feyiase","Private",6.61268,-1.55999,48.61268,48.61268
"50","Ashanti","Bosomtwe","Brodekwanu Methodis Clinic","Clinic","Brodekwanu","CHAG",6.53546,-1.35365,48.53546,48.53546
"51","Ashanti","Bosomtwe","CAMFAP Maternity Clinic","Clinic","New Kokobiriko (Abijan-Nkwant","Private",6.57933,-1.54404,48.57933,48.57933
"52","Ashanti","Bosomtwe","Jachie Health Centre","Health Centre","Jachie","Government",6.56598,-1.52097,48.56598,48.56598
"53","Ashanti","Bosomtwe","Kuntenase Government Hospital","District Hospital","Kuntenase","Government",6.53752,-1.47454,48.53752,48.53752
"54","Ashanti","Bosomtwe","Lake Bosomtwi Methodist Clinic","Clinic","Amakom","CHAG",6.48398,-1.37362,48.48398,48.48398
"55","Ashanti","Bosomtwe","Nyameani Methodist Clinic","Clinic","Nyameani","CHAG",6.56458,-1.43022,48.56458,48.56458
"56","Ashanti","Bosomtwe","Piase CHPS","CHPS","Piase","Government",6.59099,-1.45151,48.59099,48.59099
"57","Ashanti","Bosomtwe","SDA Clinic Konkoma","Clinic","Konkoma","CHAG",6.51291,-1.34849,48.51291,48.51291
"58","Ashanti","Bosomtwe","Sophia Maternity Home","Maternity Home","Esereso","Private",6.63159,-1.56147,48.63159,48.63159
"59","Ashanti","Bosomtwe","St. Marys Anglican Clinic","Clinic","Apinkra","CHAG",6.54056,-1.54346,48.54056,48.54056
"60","Ashanti","Bosomtwe","St. Micheal Hospital","Hospital","Pramso","CHAG",6.55872,-1.51247,48.55872,48.55872
"61","Ashanti","Bosomtwe","Tetrefu Health Centre","Health Centre","Tetrefu","Government",6.62487,-1.53468,48.62487,48.62487
"62","Ashanti","Bosomtwe","God's Grace Maternity Home","Maternity Home","Aputuagya","Private",6.5016785,-1.4144827,48.5016785,48.5016785
"63","Ashanti","Obuasi Municipal","Anyinam Clinic","Clinic","Obuasi-Anyinam","Government",6.19897,-1.68205,48.19897,48.19897
"64","Ashanti","Ahafo-Ano North","Anyinasuso Health Centre","Health Centre","Anyinasuso","Government",6.95913,-2.10037,48.95913,48.95913
"65","Ashanti","Ahafo-Ano North","Anyinasuso Maternity Home","Maternity Home","Anyinasuso","Private",6.95871,-2.10015,48.95871,48.95871
"66","Ashanti","Offinso North","Anyinasusu SDA Centre","Clinic","Anyinasusu","CHAG",7.01484,-1.70874,49.01484,49.01484
"67","Ashanti","Sekyere Afram Plains","Anyinofi Health Centre","Health Centre","Anyinofi","Government",7.42528,-0.77045,49.42528,49.42528
"68","Ashanti","Mampong Municipal","Apaa Maternity Home","Maternity Home","Apaa","Private",6.95511,-1.43465,48.95511,48.95511
"69","Ashanti","Ejisu-Juaben Municipal","Apromase Health Centre","Health Centre","Apromase","Government",6.67085,-1.49543,48.67085,48.67085
"70","Ashanti","Mampong Municipal","Asaam Health Clinic","Health Centre","Asaam","Government",7.11732,-1.46598,49.11732,49.11732
"71","Ashanti","Obuasi Municipal","Asempa   Maternity and Clinic","Clinic","Gausu","Private",6.19924,-1.68233,48.19924,48.19924
"72","Ashanti","Atwima-Kwanwoma","Ahenema kokoben Health Centre","Health Centre","Ahenema kokoben","Government",6.62597,-1.64978,48.62597,48.62597
"73","Ashanti","Atwima-Kwanwoma","Bebu Methodist Clinic","Clinic","Bebu","CHAG",6.61154,-1.68505,48.61154,48.61154
"74","Ashanti","Atwima-Kwanwoma","Eye Adom Maternity Home","Maternity Home","Brofoyeduru","Private",6.61458,-1.65857,48.61458,48.61458
"75","Ashanti","Atwima-Kwanwoma","Foase Health Centre","Health Centre","Foase","Government",6.63751,-1.75124,48.63751,48.63751
"76","Ashanti","Atwima-Kwanwoma","Kwanwoma Health Centre","Health Centre","Kwanwoma","Government",6.62865,-1.63524,48.62865,48.62865
"77","Ashanti","Atwima-Kwanwoma","Trabuom Health Centre","Health Centre","Trabuom","Government",6.61142,-1.76252,48.61142,48.61142
"78","Ashanti","Atwima-Kwanwoma","Trede Health Centre","Health Centre","Trede","Government",6.57803,-1.66859,48.57803,48.57803
"79","Ashanti","Atwima-Kwanwoma","Nweneso III Health Centre","Health Centre","Nweneso III","Private",6.5972124,-1.578999399,48.5972124,48.5972124
"80","Ashanti","Bosome Freho","Asiwa Health Centre","Health Centre","Asiwa","Government",6.42344,-1.33434,48.42344,48.42344
"81","Ashanti","Adansi North","Asokwa Health Centre","Health Centre","Asokwa","Government",6.28068,-1.50786,48.28068,48.28068
"82","Ashanti","Amansie West","Essuowin Health Centre","Health Centre","Assuowin","Government",6.53656,-1.86502,48.53656,48.53656
"83","Ashanti","Sekyere Central","Asubuasu Health Centre","Health Centre","Asubuasu","Government",7.31624,-1.23529,49.31624,49.31624
"84","Ashanti","Atwima-Nwabiagya","Asuofua Health Centre","Health Centre","Asuofia","Government",7,-2,49,49
"85","Ashanti","Adansi South","Ataasi Health Centre","Health Centre","Ataasi Nkwanta","Government",5.96664,-1.36454,47.96664,47.96664
"86","Ashanti","Sekyere Central","Atonsu Health Centre","Health Centre","Atonsu","Government",7.02372,-1.30912,49.02372,49.02372
"87","Ashanti","Adansi South","Atwereboana Clinic","Clinic","Atwereboana","Government",5.96235,-1.34213,47.96235,47.96235
"88","Ashanti","Atwima-Nwabiagya","Atwima Clinic","Clinic","Atwima","Government",7,-2,49,49
"89","Ashanti","Obuasi Municipal","Avril Clinic","Clinic","Akaporiso","Private",6.19802,-1.62953,48.19802,48.19802
"90","Ashanti","Ejura Sekyeredumasi","Babaso MCH","Clinic","Babaso","Government",7.34065,-1.32417,49.34065,49.34065
"91","Ashanti","Asante-Akim South","Banka Health Centre","Health Centre","Banka","Government",6.29824,-1.21615,48.29824,48.29824
"92","Ashanti","Sekyere Afram Plains","Banko Health Centre","Health Centre","Banko","Government",6.75822,-1.28473,48.75822,48.75822
"93","Ashanti","Asante-Akim South","Banso SDA Clinic","Clinic","Banso","Government",6.47584,-1.19674,48.47584,48.47584
"94","Ashanti","Atwima-Nwabiagya","Barekese Health Centre","Health Centre","Barekese","Government",7,-2,49,49
"95","Ashanti","Atwima-Mponua","Barniekrom maternity home","Maternity Home","Barniekrom","Government",6.54199,-2.17473,48.54199,48.54199
"96","Ashanti","Asante-Akim North Municipal","Bebome Health Centre","Health Centre","Bebome","Government",6.86725,-1.09566,48.86725,48.86725
"97","Ashanti","Atwima-Kwanwoma","Bebu Methodist Clinic","Clinic","Bebu","CHAG",6.61154,-1.68505,48.61154,48.61154
"98","Ashanti","Bekwai Municipal","Bekwai Government Hospital","District Hospital","Bekwai","Government",6.45605,-1.57857,48.45605,48.45605
"99","Ashanti","Mampong Municipal","Benim Health Centre","Health Centre","Benim","Government",7.09054,-1.46459,49.09054,49.09054
"100","Ashanti","Sekyere Central","Beposo Health Centre","Centre","Beposo","Government",6.98526,-1.35503,48.98526,48.98526
"101","Ashanti","Atwima-Mponua","Bethel Maternity Home","Maternity Home","Enyinamoso","Private",6.64692,-1.90327,48.64692,48.64692
"102","Ashanti","Ahafo-Ano North","Betiako Health Centre","Health Centre","Betiako","Government",6.86638,-2.20685,48.86638,48.86638
"103","Ashanti","Atwima-Mponua","Beyerebon No.5 Health Centre","Health Centre","Bayerebon","Government",6.39211,-2.18134,48.39211,48.39211
"104","Ashanti","Mampong Municipal","Birem Health Centre","Health Centre","Birem","Government",7.22732,-0.99197,49.22732,49.22732
"105","Ashanti","Afigya-Kwabre","Boamang Health Centre","Health Centre","Boamang","Government",6.94073,-1.61705,48.94073,48.94073
"106","Ashanti","Sekyere South","Boanim Health Centre","Health Centre","Boanim","Government",7.03482,-1.48741,49.03482,49.03482
"107","Ashanti","Adansi North","Bodwesango St Louis Health Centre","Health Centre","Bodwesango","CHAG",6.22249,-1.31031,48.22249,48.22249
"108","Ashanti","Ejisu-Juaben Municipal","Bomfa Health Centre","Health Centre","Bomfa","Government",6.59635,-1.29933,48.59635,48.59635
"109","Ashanti","Asante-Akim South","Bompata Health Centre","Health Centre","Bompata","Government",6.66727,-1.08393,48.66727,48.66727
"110","Ashanti","Offinso Municipal","Bonsua Health Centre","Health Centre","Bonsua","Government",6.93485,-1.67615,48.93485,48.93485
"111","Ashanti","Ejisu-Juaben Municipal","Bonwire Clinic","Clinic","Bonwire","Private",6.4716,-1.2846,48.4716,48.4716
"112","Ashanti","Obuasi Municipal","Brahabebome Clinic","Clinic","Brahabebome New Site","Private",6.19444,-1.63014,48.19444,48.19444
"113","Ashanti","Obuasi Municipal","Bryant  Mission Hospital","Hospital","Boete","Private",6.1131,-1.3844,48.1131,48.1131
"114","Ashanti","Obuasi Municipal","Cecilia Maternity  Home","Maternity Home","Kwabrafoso","Private",6.19886,-1.65574,48.19886,48.19886
"115","Ashanti","Obuasi Municipal","Central Market Clinic","Clinic","Estate Extension","Private",6.20591,-1.67031,48.20591,48.20591
"116","Ashanti","Kwabre","Christ Our Hope Maternity Home","Maternity Home","Ntonso","Private",6.75486,-1.52744,48.75486,48.75486
"117","Ashanti","Amansie West","Christ Our Saviour Clinic","Clinic","Manso Moseaso","CHAG",6.51142,-1.85217,48.51142,48.51142
"118","Ashanti","Ejisu-Juaben Municipal","Church of Christ Mission Clinic","Clinic","Adadientam","CHAG",6.71394,-1.42827,48.71394,48.71394
"119","Ashanti","Ejisu-Juaben Municipal","Church of God Clinic","Clinic","Essienimpong","CHAG",6.66053,-1.44979,48.66053,48.66053
"120","Ashanti","Atwima-Mponua","Community Health Centre","Clinic","Mpasatia","CHAG",6.66848,-1.84016,48.66848,48.66848
"121","Ashanti","Sekyere Central","Cross Medical Centre","Clinic","Nsuta","Private",7.00829,-1.37595,49.00829,49.00829
"122","Ashanti","Asante-Akim North Municipal","Daasebre Maternity Home","Maternity Home","Ahenebronuum","Private",6.62776,-1.21314,48.62776,48.62776
"123","Ashanti","Sekyere Afram Plains","Dadiase Health Centre","Health Centre","Dadiase","Government",6.88078,-1.36776,48.88078,48.88078
"124","Ashanti","Ejisu-Juaben Municipal","Dakopon Hospital","Hospital","Kwamo","Private",6.72086,-1.49322,48.72086,48.72086
"125","Ashanti","Amansie West","Datano Health Post","Clinic","Datano","CHAG",6.29398,-1.97098,48.29398,48.29398
"126","Ashanti","Bosome Freho","Detieso Community Clinic","Clinic","Detieso","Government",6.47674,-1.44168,48.47674,48.47674
"127","Ashanti","Sekyere South","Domeabra Health Centre","Health Centre","Domeabra","Government",6.93864,-1.55757,48.93864,48.93864
"128","Ashanti","Adansi North","Dompoase Benito Menni Health Centre","Health Centre","Dompoase","CHAG",6.32282,-1.54468,48.32282,48.32282
"129","Ashanti","Amansie West","Dora Maternity Clinic","Maternity Home","Pakyi  No 2","Private",6.4804,-1.4951,48.4804,48.4804
"130","Ashanti","Offinso North","Dorcas Memorial Clinic","Clinic","Akomadan","CHAG",7.39694,-1.95297,49.39694,49.39694
"131","Ashanti","Bosome Freho","Duasi Community Clinic","Clinic","Duasi","Government",6.46863,-1.39522,48.46863,48.46863
"132","Ashanti","Asante-Akim North Municipal","Dwease Health Centre","Health Centre","Dwease","Government",6.53747,-1.24407,48.53747,48.53747
"133","Ashanti","Asante-Akim South","Dwendwenase Health Centre","Health Centre","Dwendwenase","Government",6.41223,-1.19934,48.41223,48.41223
"134","Ashanti","Atwima-Mponua","Ebenezer Methodist Clinic","Clinic","Mpasatia","CHAG",6.65865,-1.84306,48.65865,48.65865
"135","Ashanti","Adansi South","Edwafo Health Centre","Health Centre","Edwafo","Government",6.19675,-1.57367,48.19675,48.19675
"136","Ashanti","Sekyere East","Effiduase District Hospital","District Hospital","Effiduase","Government",6.84739,-1.39373,48.84739,48.84739
"137","Ashanti","Sekyere East","Effiduase Trust Maternity Home","Maternity Home","Effiduase","Private",6.84821,-1.39412,48.84821,48.84821
"138","Ashanti","Ejisu-Juaben Municipal","Ejisu Health Centre","Health Centre","Ejisu","Government",6.72103,-1.47028,48.72103,48.72103
"139","Ashanti","Ejura Sekyeredumasi","Ejura District Hospital","District Hospital","Ejura","Government",7.38906,-1.35197,49.38906,49.38906
"140","Ashanti","Ejura Sekyeredumasi","Ejura MCH","Clinic","Ejura","Government",7.36556,-1.34358,49.36556,49.36556
"141","Ashanti","Afigya-Kwabre","Ejuratia Health Centre","Health Centre","Ejuratia","Government",6.82287,-1.52227,48.82287,48.82287
"142","Ashanti","Obuasi Municipal","Emmanuel  Maternity  Home","Maternity Home","Boete","Private",6.19235,-1.64475,48.19235,48.19235
"143","Ashanti","Ejura Sekyeredumasi","Enso Nyameye Maternity Home","Maternity Home","Kontokori Line","Private",7.37894,-1.35796,49.37894,49.37894
"144","Ashanti","Ahafo-Ano South","Essienkyem Health Centre","Health Centre","Essienkyem","Government",6.97584,-1.84784,48.97584,48.97584
"145","Ashanti","Atwima-Nwabiagya","Everest Hospital","Hospital","Achiase","Private",7,-2,49,49
"146","Ashanti","Atwima-Kwanwoma","Eye Adom Maternity Home","Maternity Home","Brofoyeduru","Private",6.61458,-1.65857,48.61458,48.61458
"147","Ashanti","Afigya-Kwabre","Family Care Hospital","Hospital","Mowre","Private",6.81614,-1.47675,48.81614,48.81614
"148","Ashanti","Kwabre","Fawade Nkanta Clinic","Clinic","Fawade","Private",6.81047,-1.63866,48.81047,48.81047
"149","Ashanti","Atwima-Kwanwoma","Foase Health Centre","Health Centre","Foase","Government",6.63751,-1.75124,48.63751,48.63751
"150","Ashanti","Adansi North","Fomena Health Centre","Health Centre","Fomena","Government",6.28022,-1.51002,48.28022,48.28022
"151","Ashanti","Adansi North","Fumso Health Centre","Health Centre","Fumso","Government",6.11048,-1.44854,48.11048,48.11048
"152","Ashanti","Adansi North","Fumso-Ketewa Health Centre","Health Centre","Fumso Ketewa","Government",6.29675,-1.63103,48.29675,48.29675
"153","Ashanti","Afigya-Kwabre","Gladys Maternity Home","Maternity Home","Kodie","Private",6.78875,-1.56109,48.78875,48.78875
"154","Ashanti","Ejisu-Juaben Municipal","Global Evangelical Mission Hospital","Hospital","Apromase","CHAG",6.66903,-1.49298,48.66903,48.66903
"155","Ashanti","Atwima-Nwabiagya","God is Able Maternity Home","Maternity Home","Sepase","Private",7,-2,49,49
"156","Ashanti","Ejisu-Juaben Municipal","Grace Maternity Home and Clinic","Maternity Home","Akyawkrom","Private",6.73257,-1.46146,48.73257,48.73257
"157","Ashanti","Bosome Freho","Gyasikrom Health Centre","Clinic","Gyasikrom","Government",6.40145,-1.47313,48.40145,48.40145
"158","Ashanti","Atwima-Mponua","Gyreso RCH","RCH","Gyeresu","Government",6.47006,-2.41673,48.47006,48.47006
"159","Ashanti","Ejura Sekyeredumasi","Homako Community Clinic","Clinic","Homako","Government",7.42915,-1.45106,49.42915,49.42915
"160","Ashanti","Ejisu-Juaben Municipal","Humble Maternity Home","Maternity Home","Kokobra","Private",6.71479,-1.52225,48.71479,48.71479
"161","Ashanti","Ejisu-Juaben Municipal","Huttel Health Centre","Health Centre","Boamadumase","Private",6.61582,-1.34007,48.61582,48.61582
"162","Ashanti","Adansi South","Hwidiem Community Clinic","Clinic","Hwidiem","Government",5.89432,-1.46766,47.89432,47.89432
"163","Ashanti","Obuasi Municipal","Ideal Homoepatic Clinic","Clinic","Obuasi - Stadium","Private",6.20564,-1.68425,48.20564,48.20564
"164","Ashanti","Sekyere Central","Isaaka Akura Health Centre","Health Centre","Isaaka Akura-Afram  Plains","Private",7.41542,-1.13783,49.41542,49.41542
"165","Ashanti","Afigya-Kwabre","Jalua  Maternity Home","Maternity Home","Nkukua Buoho","Private",6.81462,-1.64877,48.81462,48.81462
"166","Ashanti","Sekyere South","Jamasi Health Centre","Health Centre","Jamasi","Government",6.97753,-1.47255,48.97753,48.97753
"167","Ashanti","Sekyere Central","Jeduako Clinic","Clinic","Jeduako","Government",7.09501,-1.20917,49.09501,49.09501
"168","Ashanti","Obuasi Municipal","Jemina Maternity Home","Maternity Home","Obuasi Central","Private",6.20313,-1.66816,48.20313,48.20313
"169","Ashanti","Ejisu-Juaben Municipal","Jesus Is Lord Maternity Home","Maternity Home","Tikrom","Private",6.73865,-1.51092,48.73865,48.73865
"170","Ashanti","Kwabre","Joy Maternity Home","Maternity Home","Mamponteng","Private",6.79962,-1.64543,48.79962,48.79962
"171","Ashanti","Ejisu-Juaben Municipal","Juaben Government Hospital","District Hospital","Juaben","Government",6.81602,-1.41392,48.81602,48.81602
"172","Ashanti","Asante-Akim North Municipal","Juansa Health Centre","Health Centre","Juansa","Government",6.72336,-1.12734,48.72336,48.72336
"173","Ashanti","Asante-Akim South","Juaso District Hospital","District Hospital","Juaso","Government",6.59223,-1.12113,48.59223,48.59223
"174","Ashanti","Amansie West","Keniago CHPS","CHPS","Keniago","Government",6.37344,-2.01764,48.37344,48.37344
"175","Ashanti","Kwabre","Kenyasi Health Centre","Health Centre","Kenyasi","Government",6.78507,-1.56655,48.78507,48.78507
"176","Ashanti","Obuasi Municipal","KofiKrom Clinic","Clinic","Kofi Krom","Private",6.19624,-1.68043,48.19624,48.19624
"177","Ashanti","Mampong Municipal","Kofiase Health Centre","Health Centre","Kofiase","Government",7.14113,-1.48363,49.14113,49.14113
"178","Ashanti","Bekwai Municipal","Kokofu General Hospital","Hospital","Kokofu","Government",6.49903,-1.52254,48.49903,48.49903
"179","Ashanti","Sekyere South","Kona Health Centre","Health Centre","Kona","Government",6.86776,-1.51231,48.86776,48.86776
"180","Ashanti","Asante-Akim North Municipal","Konongo-Odumasi Government Hospital","District Hospital","Konongo","Government",6.62436,-1.21792,48.62436,48.62436
"181","Ashanti","Mampong Municipal","Krobo Health Centre","Health Centre","Krobo","Government",7.07457,-1.42352,49.07457,49.07457
"182","Ashanti","Sekyere Afram Plains","Kumawu Health Centre","Health Centre","Kumawu","Government",6.90708,-1.26803,48.90708,48.90708
"183","Ashanti","Asante-Akim South","Komeso Health Centre","Health Centre","Kumeso","Government",6.46154,-1.06901,48.46154,48.46154
"184","Ashanti","Afigya-Kwabre","Kwamang Health Centre","Health Centre","Kwamang","Government",6.89664,-1.62457,48.89664,48.89664
"185","Ashanti","Sekyere Central","Kwamang Health Centre","Health Centre","Kwamang","Government",6.98188,-1.26961,48.98188,48.98188
"186","Ashanti","Atwima-Kwanwoma","Kwanwoma Health Centre","Health Centre","Kwanwoma","Government",6.62865,-1.63524,48.62865,48.62865
"187","Ashanti","Ejisu-Juaben Municipal","Kwaso Health Centre","Health Centre","Kwaso","Government",6.62771,-1.44722,48.62771,48.62771
"188","Ashanti","Afigya-Kwabre","Kyekyewere Health Centre","Health Centre","Kyekyewere","Government",7.14538,-1.63944,49.14538,49.14538
"189","Ashanti","Asante-Akim North Municipal","Life Land Clinic","Clinic","Abosomtweagya","Private",6.62067,-1.20373,48.62067,48.62067
"190","Ashanti","Atwima-Nwabiagya","Maakro Clinic","Clinic","Maakro","Private",7,-2,49,49
"191","Ashanti","Ahafo-Ano North","Matang Clinic","Clinic","Matang","Private",6.99615,-2.21651,48.99615,48.99615
"192","Ashanti","Ejisu-Juaben Municipal","Madoma Maternity Clinic","Clinic","Besease","CHAG",6.72093,-1.45015,48.72093,48.72093
"193","Ashanti","Ejisu-Juaben Municipal","Mama Tina Maternity Home","Maternity Home","Kwamo","Private",6.71524,-1.50509,48.71524,48.71524
"194","Ashanti","Mampong Municipal","Mampong District Hospital","District Hospital","Mampong","Government",7.04563,-1.40219,49.04563,49.04563
"195","Ashanti","Mampong Municipal","Mampong Quality Hospital","Hospital","Mampong","Private",7.04621,-1.40195,49.04621,49.04621
"196","Ashanti","Kwabre","Mamponteng Health Centre","Health Centre","Mamponteng","Government",6.83295,-1.47695,48.83295,48.83295
"197","Ashanti","Ahafo-Ano North","Manfo Health Centre","Health Centre","Manfo","Government",6.94531,-2.23044,48.94531,48.94531
"198","Ashanti","Ahafo-Ano South","Mankranso Hospital","Hospital","Mankranso","Government",6.82076,-1.86278,48.82076,48.82076
"199","Ashanti","Amansie West","Manso Abore Health Centre","Health Centre","Manso Abore","Government",6.44627,-1.97764,48.44627,48.44627
"200","Ashanti","Amansie West","Manso Edubia Health Centre","Health Centre","Manso-Adubia","Government",6.40256,-1.92957,48.40256,48.40256
"201","Ashanti","Amansie West","Manso Nkwanta Maternity Home","Maternity Home","Manso Nkwanta","Private",6.47682,-1.87916,48.47682,48.47682
"202","Ashanti","Amansie West","Manso Tontokrom Health Centre","Health Centre","Tontokrom","Government",6.24929,-1.99483,48.24929,48.24929
"203","Ashanti","Adansi South","Mansonso Health Centre","Health Centre","Mansonso","Government",6.04547,-1.58955,48.04547,48.04547
"204","Ashanti","Amansie Central","Marben Maternity","Maternity Home","Jacobu","Private",6.35241,-1.67799,48.35241,48.35241
"205","Ashanti","Kwabre","Meduma Clinic","Clinic","Medoma","Private",6.79089,-1.56091,48.79089,48.79089
"206","Ashanti","Ejisu-Juaben Municipal","Memorial Maternity Home","Maternity Home","Okyerekrom","Private",6.72122,-1.52589,48.72122,48.72122
"207","Ashanti","Afigya-Kwabre","Methodist Faith Healing Hospital","District Hospital","Ankaase","CHAG",6.84819,-1.54934,48.84819,48.84819
"208","Ashanti","Amansie Central","Mile 14 Community Clinic","Clinic","Mile 14","Government",6.22126,-1.82139,48.22126,48.22126
"209","Ashanti","Asante-Akim South","Morso Clinic","Clinic","Morso","Government",6.65518,-1.10681,48.65518,48.65518
"210","Ashanti","Amansie West","Mother of God Clinic","Clinic","Esaase","CHAG",6.55942,-1.89046,48.55942,48.55942
"211","Ashanti","Ahafo-Ano South","Mpasaso Health Centre","Health Centre","Mpasaso","Government",6.80274,-2.13864,48.80274,48.80274
"212","Ashanti","Amansie West","Mpatuom RCH","RCH","Mpatuom","Government",6.54088,-1.93215,48.54088,48.54088
"213","Ashanti","Afigya-Kwabre","Mpobi RCH","RCH","Mpobi","Government",6.84775,-1.56165,48.84775,48.84775
"214","Ashanti","Asante-Akim South","Muranaim Health Centre","Health Centre","Muronam","Government",6.24703,-1.20566,48.24703,48.24703
"215","Ashanti","Mampong Municipal","Nadaworoma Clinic","Clinic","Mampong New Town","Private",7.06598,-1.40213,49.06598,49.06598
"216","Ashanti","Atwima-Nwabiagya","Nana Frema Maternity Home","Maternity Home","Adankwame","Private",7,-2,49,49
"217","Ashanti","Bekwai Municipal","Nancy Powel's Clinic","Clinic","Tebeso #2","CHAG",6.31788,-1.30804,48.31788,48.31788
"218","Ashanti","Obuasi Municipal","Neighbourhood    Clinic","Clinic","Abompe    New  Site","Private",6.21889,-1.67117,48.21889,48.21889
"219","Ashanti","Adansi North","New Ayaasi Adom Maternity Home","Health Centre","New Ayaasi","Private",6.29641,-1.52338,48.29641,48.29641
"220","Ashanti","Adansi South","New Edubiase Hospital","District Hospital","New Edubiase","Government",6.05456,-1.39281,48.05456,48.05456
"221","Ashanti","Bekwai Municipal","New Life Clinic","Clinic","Apau","CHAG",6.47284,-1.43677,48.47284,48.47284
"222","Ashanti","Amansie West","Nipankyeremia CHPS","CHPS","Nipankyeremia","Government",6.37002,-2.15827,48.37002,48.37002
"223","Ashanti","Atwima-Nwabiagya","Nkawie/Toase Hospital","Hospital","Nkawie","Government",7,-2,49,49
"224","Ashanti","Offinso North","Nkenkasu District Hospital","District Hospital","Nkenkasu","Government",7.31957,-1.90289,49.31957,49.31957
"225","Ashanti","Ejura Sekyeredumasi","Nkwanta Community Clinic","Clinic","Ejura Nkwanta","Government",7.51378,-1.34725,49.51378,49.51378
"226","Ashanti","Asante-Akim South","Nnadieso Health Centre","Health Centre","Nnadieso","Government",6.59956,-1.092061,48.59956,48.59956
"227","Ashanti","Ejisu-Juaben Municipal","Nobewam SDA Clinic","Clinic","Nobewam","CHAG",6.62289,-1.23985,48.62289,48.62289
"228","Ashanti","Sekyere Central","Nsutaman Health Centre","Health Centre","Nsuta","Government",7.00861,-1.38146,49.00861,49.00861
"229","Ashanti","Atwima-Mponua","Ntobroso Health Centre","Health Centre","Ntobroso","Government",6.53571,-2.04245,48.53571,48.53571
"230","Ashanti","Amansie Central","Numereso Health Centre","Health Centre","Numereso","Government",6.07568,-1.85459,48.07568,48.07568
"231","Ashanti","Asante-Akim North Municipal","Nutrition Rehabilitation Centre","Clinic","Konongo","Government",6.79529,-1.08871,48.79529,48.79529
"232","Ashanti","Atwima-Nwabiagya","Nyama Maternity Home","Maternity Home","Achiase","Private",7,-2,49,49
"233","Ashanti","Amansie West","Nyame Akwan Maternity","Maternity Home","Mpatoum","Private",6.54096,-1.93229,48.54096,48.54096
"234","Ashanti","Atwima-Mponua","Nyinahin Government Hospital","District Hospital","Nyinahin","Government",6.60115,-2.10999,48.60115,48.60115
"235","Ashanti","Asante-Akim South","Obogu Health Centre","Health Centre","Obogu","Government",6.51484,-1.11586,48.51484,48.51484
"236","Ashanti","Adansi South","Obonsu Clinic","Clinic","Obonsu","Government",5.95324,-1.35225,47.95324,47.95324
"237","Ashanti","Obuasi Municipal","Obuasi Government Hospital","Hospital","Obuasi","Government",6.1213,-1.4105,48.1213,48.1213
"238","Ashanti","Amansie West","Odaho RCH","RCH","Odaho","Government",6.27381,-1.96832,48.27381,48.27381
"239","Ashanti","Offinso Municipal","Offinso Health Centre","Health Centre","Offinso","Government",6.93782,-1.67504,48.93782,48.93782
"240","Ashanti","Asante-Akim South","Ofoase Health Centre","Health Centre","Ofoase","Government",6.37813,-1.26746,48.37813,48.37813
"241","Ashanti","Sekyere East","Okaikrom Health Centre","Health Centre","Okaikrom","Government",6.82612,-1.30866,48.82612,48.82612
"242","Ashanti","Sekyere Central","Catholic Clinic, Oku","Clinic","Oku","CHAG",7.34796,-1.00318,49.34796,49.34796
"243","Ashanti","Afigya-Kwabre","Owusua Maternity Home","Maternity Home","Bronkong","Private",6.77474,-1.63906,48.77474,48.77474
"244","Ashanti","Sekyere Afram Plains","Oyoko Our Lady Maternity Home","Maternity Home","Oyoko","Private",6.86521,-1.38976,48.86521,48.86521
"245","Ashanti","Ejisu-Juaben Municipal","Paradyse Clinic","Clinic","Ejisu","Private",6.72105,-1.47262,48.72105,48.72105
"246","Ashanti","Sekyere Afram Plains","Peace and Comfort Maternity Clinic","Maternity Home","Kumawu Bodomasi","Private",6.89428,-1.25522,48.89428,48.89428
"247","Ashanti","Atwima-Nwabiagya","Peace Homeo Medical Centre","Clinic","Ntensere","Private",7,-2,49,49
"248","Ashanti","Ejisu-Juaben Municipal","Peminase Maternity Home","Maternity Home","Peminase","Government",6.52668,-1.31086,48.52668,48.52668
"249","Ashanti","Ahafo-Ano South","Pokukrom Health Centre","Health Centre","Pokukrom","Government",7.00378,-1.95239,49.00378,49.00378
"250","Ashanti","Asante-Akim North Municipal","Praaso Health Centre","Health Centre","Praaso","Government",6.51556,-1.26672,48.51556,48.51556
"251","Ashanti","Offinso Municipal","Quality Care Clinic","Clinic","Offinso Adikuro","Private",6.95019,-1.67263,48.95019,48.95019
"252","Ashanti","Ejisu-Juaben Municipal","Queen Victoria Maternity Home and Clinic","Maternity Home","Serwaa Akura","Private",6.72345,-1.47869,48.72345,48.72345
"253","Ashanti","Obuasi Municipal","Redemption Bible Way Clinic and Laboratory","Clinic","Rams Hill","Private",6.20121,-1.66393,48.20121,48.20121
"254","Ashanti","Amansie West","Resolute Amansie","Clinic","Manso Nkran","Quasi-Government",6.34571,-1.98979,48.34571,48.34571
"255","Ashanti","Ejisu-Juaben Municipal","Rev. Walker Medical Centre","Clinic","Kokobra","Private",6.71394,-1.52192,48.71394,48.71394
"256","Ashanti","Asante-Akim South","Rose Maternity Home","Maternity Home","Obogu","Private",6.52025,-1.12042,48.52025,48.52025
"257","Ashanti","Ahafo-Ano South","Sabronum  Health Centre","Health Centre","Sabronum","Government",7.08809,-1.89095,49.08809,49.08809
"258","Ashanti","Sekyere South","Sacred Heart Maternity Clinic","Clinic","Bepoase","CHAG",7.08676,-1.55514,49.08676,49.08676
"259","Ashanti","Atwima-Mponua","Saakrom Health Centre","Health Centre","Saakrom","Government",6.75871,-2.02993,48.75871,48.75871
"260","Ashanti","Sekyere South","Salvation Army Clinic","Hospital","Wiamoase","CHAG",7.05213,-1.52521,49.05213,49.05213
"261","Ashanti","Mampong Municipal","SDA Clinic Apaa","Clinic","Apaa","CHAG",6.97086,-1.44302,48.97086,48.97086
"262","Ashanti","Bekwai Municipal","SDA Hospital","Hospital","Dominase","CHAG",6.3104,-1.3911,48.3104,48.3104
"263","Ashanti","Ejisu-Juaben Municipal","SDA Hospital","Hospital","Onwe","CHAG",6.68001,-1.54161,48.68001,48.68001
"264","Ashanti","Sekyere South","SDA Hospital Asamang","Hospital","Asamang","CHAG",7.05322,-1.50964,49.05322,49.05322
"265","Ashanti","Sekyere South","SDA Hospital Wiamoase","Hospital","Wiamose","CHAG",6.90258,-1.43311,48.90258,48.90258
"266","Ashanti","Ejura Sekyeredumasi","Sekyedumase Health Centre","Health Centre","Sekyedumase Health Centre","Government",7.31352,-1.57912,49.31352,49.31352
"267","Ashanti","Sekyere East","Sekyere Health Centre","Health Centre","Sekyere","Government",6.92692,-1.37465,48.92692,48.92692
"268","Ashanti","Sekyere East","Sekyere Methodist Clinic","Clinic","Sekyere","CHAG",6.92646,-1.37494,48.92646,48.92646
"269","Ashanti","Sekyere East","Senchie Methodist Clinic","Clinic","Senkyi","CHAG",6.80818,-1.32507,48.80818,48.80818
"270","Ashanti","Amansie West","Shalom Clinic","Health Centre","Watreso","CHAG",6.25351,-1.91797,48.25351,48.25351
"271","Ashanti","Bekwai Municipal","Shalom Methodist Clinic","Clinic","Nsuaem #2","CHAG",6.36494,-1.36645,48.36494,48.36494
"272","Ashanti","Adansi South","Sikaman Health Centre","Health Centre","Sikaman","Government",6.11499,-1.58045,48.11499,48.11499
"273","Ashanti","Mampong Municipal","Sister Philipa Maternity Home","Maternity Home","Mampong Kokoase","Private",7.05921,-1.39703,49.05921,49.05921
"274","Ashanti","Atwima-Mponua","Sreso Tinpom Health Centre","Health Centre","Sreso Tinpom","Government",6.62201,-2.30317,48.62201,48.62201
"275","Ashanti","Sekyere East","St Luke Clinic","Clinic","Seniagya","CHAG",6.79774,-1.32026,48.79774,48.79774
"276","Ashanti","Ejisu-Juaben Municipal","St. Annes Maternity Clinic","Clinic","Donyina","CHAG",6.63994,-1.49782,48.63994,48.63994
"277","Ashanti","Ahafo-Ano South","St. Anns Maternity Home","Maternity Home","Essibey Nkwata","Private",6.84578,-1.76006,48.84578,48.84578
"278","Ashanti","Ejura Sekyeredumasi","St. Anthony Maternity Clinic","Maternity Home","Anyinasu","Government",7.22643,-1.58011,49.22643,49.22643
"279","Ashanti","Ahafo-Ano South","St. Edwards Clinic","Health Centre","Adwinyama","CHAG",6.88014,-1.87428,48.88014,48.88014
"280","Ashanti","Ahafo-Ano South","St. Johns Clinic","Health Centre","Domeabra","CHAG",6.87183,-2.05678,48.87183,48.87183
"281","Ashanti","Kwabre","St. Joseph's Clinic.","Clinic","Abira","CHAG",6.77928,-1.49126,48.77928,48.77928
"282","Ashanti","Obuasi Municipal","St. Jude Hospital  Ltd.","Hospital","Bedieso-Obuasi","Private",6.20723,-1.68137,48.20723,48.20723
"283","Ashanti","Ejura Sekyeredumasi","St. Luke Hospital Kasei","Hospital","Kasei","CHAG",7.53953,-1.34637,49.53953,49.53953
"284","Ashanti","Amansie West","St. Martin's  Hospital","Hospital","Agroyesum","CHAG",6.41337,-1.88154,48.41337,48.41337
"285","Ashanti","Amansie West","St. Martin's Catholic Clinic","Clinic","Abuoso","CHAG",6.31346,-2.10902,48.31346,48.31346
"286","Ashanti","Bekwai Municipal","St. Mary's Clinic","Clinic","Yapesa","CHAG",6.45121,-1.36836,48.45121,48.45121
"287","Ashanti","Ahafo-Ano South","St. Michael Clinic","Clinic","Dwenwoho","Private",6.85935,-1.75623,48.85935,48.85935
"288","Ashanti","Atwima-Nwabiagya","St. Micheal Maternity Home","Maternity Home","Achiase","Private",7,-2,49,49
"289","Ashanti","Offinso Municipal","St. Patricks Hospital","Hospital","Offinso","CHAG",6.93135,-1.68167,48.93135,48.93135
"290","Ashanti","Atwima-Mponua","St. Peters Clinic","Clinic","Ntobroso","CHAG",6.53511,-2.04218,48.53511,48.53511
"291","Ashanti","Amansie Central","St. Peters' Hospital","Hospital","Jacobu","CHAG",6.34331,-1.66669,48.34331,48.34331
"292","Ashanti","Bekwai Municipal","St. Stephen's Clinic","Clinic","Huntade","Private",6.4804,-1.4951,48.4804,48.4804
"293","Ashanti","Afigya-Kwabre","St. Theresa's Maternity Home","Maternity Home","Atimatim","Private",6.76359,-1.61093,48.76359,48.76359
"294","Ashanti","Amansie Central","St. Thomas General and Maternity Clinic","Clinic","Hia","CHAG",6.20804,-1.77649,48.20804,48.20804
"295","Ashanti","Sekyere Afram Plains","St. Vincent Clinic","Clinic","Drobonso","CHAG",7.00714,-1.12747,49.00714,49.00714
"296","Ashanti","Ahafo-Ano North","Subriso Health Centre","Health Centre","Subriso","Government",6.81613,-2.26676,48.81613,48.81613
"297","Ashanti","Ejisu-Juaben Municipal","Super Care Hospital","Hospital","Krapa-Ejisu","Private",6.72023,-1.48104,48.72023,48.72023
"298","Ashanti","Atwima-Mponua","Tano-Odumasi Health Centre","Health Centre","Tano-Odumasi","CHAG",6.49705,-2.39662,48.49705,48.49705
"299","Ashanti","Ahafo-Ano North","Tepa District Hospital","District Hospital","Tepa","Government",6.99966,-2.16102,48.99966,48.99966
"300","Ashanti","Afigya-Kwabre","Tetrem Health Centre","Health Centre","Tetrem","Government",7.03743,-1.63735,49.03743,49.03743
"301","Ashanti","Obuasi Municipal","The Queens Maternity Home","Maternity Home","New Estate-Obuasi","Private",6.20762,-1.67233,48.20762,48.20762
"302","Ashanti","Ejisu-Juaben Municipal","Tikrom Clinic","Clinic","Tikrom","Government",6.73154,-1.51337,48.73154,48.73154
"303","Ashanti","Bekwai Municipal","Tinkwamah Maternity Home","Maternity Home","Amoaful","Private",6.45139,-1.56537,48.45139,48.45139
"304","Ashanti","Atwima-Nwabiagya","Toase Clinic","Clinic","Toase","Private",7,-2,49,49
"305","Ashanti","Atwima-Kwanwoma","Trabuom Health Centre","Health Centre","Trabuom","Government",6.61142,-1.76252,48.61142,48.61142
"306","Ashanti","Atwima-Kwanwoma","Trede Health Centre","Health Centre","Trede","Government",6.57803,-1.66859,48.57803,48.57803
"307","Ashanti","Obuasi Municipal","Twumwaa Maternity Home","Maternity Home","Brahabebome","Private",6.19277,-1.62455,48.19277,48.19277
"308","Ashanti","Atwima-Mponua","Victory Christ Maternity Home","Maternity Home","Mpasatia","Private",6.65836,-1.84223,48.65836,48.65836
"309","Ashanti","Obuasi Municipal","Watt 250 Maternity  Home","Maternity Home","Kwabrafoso","Private",6.19917,-1.65556,48.19917,48.19917
"310","Ashanti","Sekyere Afram Plains","Westphalian Hospital Complex","Hospital","Oyoko","Private",6.86802,-1.39049,48.86802,48.86802
"311","Ashanti","Sekyere South","Wiamoase Clinic","Clinic","Wiamoase","Private",7.05264,-1.50265,49.05264,49.05264
"312","Ashanti","Adansi North","Wioso Health Centre","Health Centre","Wioso","Government",6.28179,-1.66127,48.28179,48.28179
"313","Ashanti","Ahafo-Ano South","Wioso Methodist Clinic","Clinic","Wioso","CHAG",6.95583,-2.00654,48.95583,48.95583
"314","Ashanti","Kwabre","Wonoo Health Centre","Health Centre","Sakora Wonoo","Government",6.79751,-1.50148,48.79751,48.79751
"315","Ashanti","Sekyere Afram Plains","Woraso Health Centre","Health Centre","Woraso","Government",6.87636,-1.27658,48.87636,48.87636
"316","Ashanti","Ejisu-Juaben Municipal","Yaa Asantewaa Maternity Clinic","Maternity Home","Ejisu","Private",6.72505,-1.46998,48.72505,48.72505
"317","Ashanti","Ejura Sekyeredumasi","Zambrama Community Clinic","Clinic","Zambrama","Government",7.52022,-1.42013,49.52022,49.52022
"318","Ashanti","Asante-Akim North Municipal","Agogo Nurses Training Coll","Training Institution","Agogo","Government",6.8769125,-1.020322399,48.8769125,48.8769125
"319","Ashanti","Offinso Municipal","Offinso Nurses/Midwifery Training School","Training Institution","Offinso","Government",6.817426,-1.3335824,48.817426,48.817426
"320","Ashanti","Adansi North","Fomena Community Health Nurses Training School","Training Institution","Fomena","Government",6.2775432,-1.637215,48.2775432,48.2775432
"321","Ashanti","Bekwai Municipal","Kokofu Health Assistants Training School","Training Institution","Kokofu","Government",6.44999999,-1.5833333,48.44999999,48.44999999
"322","Ashanti","Ahafo-Ano North","Tepa Health Assistants Training School","Training Institution","Tepa","Government",6.9584844,-2.263039299,48.9584844,48.9584844
"323","Ashanti","Asante-Akim South","Juaso SABS Hospital","Hospital","Juaso","Private",6.5344575,-1.09694,48.5344575,48.5344575
"324","Ashanti","Asante-Akim South","Pra River Apostolic Clinic","Clinic","Pra River","CHAG",6.5344575,-1.09694,48.5344575,48.5344575
"325","Ashanti","Atwima-Nwabiagya","Abuakwa Madonna Health Centre","Health Centre","Abuakwa","Government",6.5972124,-1.5789994,48.5972124,48.5972124
"326","Ashanti","Atwima-Nwabiagya","Nkawie Clinic","Clinic","Nkawie","Private",6.5972124,-1.5789994,48.5972124,48.5972124
"327","Ashanti","Atwima-Nwabiagya","Achiase Nyama Maternity Home","Maternity Home","Achiase","Private",6.5972124,-1.5789994,48.5972124,48.5972124
"328","Ashanti","Atwima-Nwabiagya","Nerebehi Health Centre","Health Centre","Nerebehi","Government",6.5972124,-1.5789994,48.5972124,48.5972124
"329","Ashanti","Atwima-Mponua","Anyinamso Maternity Home","Maternity Home","Anyinamso","Private",6.6588391,-2.2236667,48.6588391,48.6588391
"330","Ashanti","Atwima-Mponua","Mpasatia Health Centre","Health Centre","Mpasatia","Government",6.6588391,-2.2236667,48.6588391,48.6588391
"331","Ashanti","Atwima-Mponua","Kotokuom Health Centre","Health Centre","Kotokuom","Government",6.6588391,-2.2236667,48.6588391,48.6588391
"332","Ashanti","Ejura Sekyeredumasi","Anyinasu SDA Clinic","Clinic","Anyinaso","CHAG",7.3833333,-1.3666667,49.3833333,49.3833333
"333","Ashanti","Ahafo-Ano North","Ante Amma Maternity Home","Maternity Home","Abonsuaso","Private",6.9584844,-2.2630393,48.9584844,48.9584844
"334","Ashanti","Ahafo-Ano North","Adom Nyame Clinic","Clinic","Abonsuaso","Private",6.9584844,-2.2630393,48.9584844,48.9584844
"335","Ashanti","Ahafo-Ano North","Janet Maternity Home","Maternity Home","Anyinasuso","Private",6.9584844,-2.2630393,48.9584844,48.9584844
"336","Ashanti","Mampong Municipal","Mampong Municipal Health Directorate","Municipal Health Directorate","Mampong","Government",6.9584844,-2.2630393,48.9584844,48.9584844
"337","Ashanti","Mampong Municipal","Mampong Midwifery Training School","Training Institution","Mampong","Government",7.02345,-1.23598,49.02345,49.02345
"338","Ashanti","Mampong Municipal","Mampong Health Assistants Training School","Training Institution","Mampong","Government",7.02321,-0.23593,49.02321,49.02321
"339","Ashanti","Mampong Municipal","Mampong Government Hospital","Hospital","Mampong","Government",7.060683,-1.404434,49.060683,49.060683
"340","Ashanti","Mampong Municipal","Mampong Phillipa  Maternity Home","Clinic","Mampong","Private",7.060683,-1.404434,49.060683,49.060683
"341","Ashanti","Mampong Municipal","Mampong Nadaworoma Maternity Home","Clinic","Mampong","Private",7.060683,-1.404434,49.060683,49.060683
"342","Ashanti","Mampong Municipal","Adidwan Health Centre","Health Centre","Adidwan","Government",7.15067,-0.24102,49.15067,49.15067
"343","Ashanti","Mampong Municipal","Mampong Quality Hospital","Hospital","Mampong","Private",7.15067,-0.24102,49.15067,49.15067
"344","Ashanti","Mampong Municipal","Apaa Sda Clinic","Clinic","Apaa","CHAG",7.15067,-0.24102,49.15067,49.15067
"345","Ashanti","Kwabre","Asonomaso Government Hospital","District Hospital","Asonamaso","Government",6.80162,-1.51374,48.80162,48.80162
"346","Ashanti","Afigya-Kwabre","Atimatim osei Yeboah Clinic","Clinic","Atimatim","Private",7.0469952,-1.637215,49.0469952,49.0469952
"347","Ashanti","Kwabre","Ahwiaa Maame Rose Maternity","Clinic","Ahwiaa","Private",6.75832,-1.56736,48.75832,48.75832
"348","Ashanti","Kwabre","Adanwomase Eye Awurade Maternity Home","Clinic","Adanwomase","Private",6.79153,-1.4955,48.79153,48.79153
"349","Ashanti","Adansi South","Wamase Health Centre","Health Centre","Wamase","Government",6.1507611,-1.443469,48.1507611,48.1507611
"350","Ashanti","Adansi South","Wuriyie Clinic","Clinic","Wuriyie","Private",6.1507611,-1.443469,48.1507611,48.1507611
"351","Ashanti","Ahafo-Ano South","Biemso Health Centre","Health Centre","Biemso","Government",6.1507611,-1.443469,48.1507611,48.1507611
"352","Ashanti","Ahafo-Ano South","Wioso Health Centre","Health Centre","Wioso","Government",6.1507611,-1.443469,48.1507611,48.1507611
"353","Ashanti","Ahafo-Ano South","Anitemfe Health Centre","Health Centre","Anitemfe","Government",6.1507611,-1.443469,48.1507611,48.1507611
"354","Ashanti","Ahafo-Ano South","Asuadei Eno Mary Maternity Home","Clinic","Asuadei","Private",6.1507611,-1.443469,48.1507611,48.1507611
"355","Ashanti","Sekyere East","Asokore Ahmadyya Muslem Hospital","Hospital","Asokore","Islamic",7.1782817,-0.8294002,49.1782817,49.1782817
"356","Ashanti","Amansie Central","Tweapease Clinic","Clinic","Tweapease","Government",6.2767655,-1.8708613,48.2767655,48.2767655
"357","Ashanti","Amansie Central","Fenaso Chps","Clinic","Fenaso","Government",6.2767655,-1.8708613,48.2767655,48.2767655
"358","Ashanti","Bosome Freho","Dunkura  Health  Centre","Health Centre","Dunkura","Government",NA,NA,NA,NA
"359","Ashanti","Bosome Freho","Yapesa St.Mary Clinic","Clinic","Yapesa","CHAG",NA,NA,NA,NA
"360","Ashanti","Obuasi Municipal","Obuasi Municipal Health Directorate","Municipal Health Directorate","Obuasi","Government",6.0228947,-1.714958,48.0228947,48.0228947
"361","Ashanti","Amansie West","Esaase Bontefufuo Mother Of God Clinic","Clinic","Esaase Bontefufuo","Private",6.4466432,-1.949021,48.4466432,48.4466432
"362","Ashanti","Amansie West","Manso Nkran Amansie Resources Clinic","Clinic","Manso  Nkran","Quasi-Government",6.4466432,-1.949021,48.4466432,48.4466432
"363","Ashanti","Amansie West","Aborso Clinic","Clinic","Aborso","Private",6.4466432,-1.949021,48.4466432,48.4466432
"364","Ashanti","Amansie West","Watreso Methodist Shalom Clinic","Clinic","Watreso","CHAG",6.4466432,-1.949021,48.4466432,48.4466432
"365","Ashanti","Amansie West","Ankam Community Clinic","Clinic","Ankam","Government",6.4466432,-1.949021,48.4466432,48.4466432
"366","Ashanti","Amansie West","Mpraniase Chps","CHPS","Mpraniase","Government",6.4466432,-1.949021,48.4466432,48.4466432
"367","Ashanti","Amansie West","Manso Nkran Chps","CHPS","Manso Nranso","Government",6.4466432,-1.949021,48.4466432,48.4466432
"368","Ashanti","Amansie West","Aboaboso Chps","CHPS","Aboaboso","Government",6.4466432,-1.949021,48.4466432,48.4466432
"369","Ashanti","Amansie West","Akyekyerekrom Chps","CHPS","Akyekyerekrom","Government",6.4466432,-1.949021,48.4466432,48.4466432
"370","Ashanti","Asante-Akim North Municipal","Konongo Adom Hospital","Hospital","Konongo","Private",6.8769125,-1.0203224,48.8769125,48.8769125
"371","Ashanti","Asante-Akim North Municipal","Konongo Patience Clinic","Clinic","Konongo","Private",6.8769125,-1.0203224,48.8769125,48.8769125
"372","Ashanti","Offinso North","Nyamebekyere Cliinic","Clinic","Offinso","Private",6.597212,-1.578999,48.597212,48.597212
"373","Ashanti","Atwima-Kwanwoma","Bebu Emmanuel Methodist Clinic","Clinic","Bebu","CHAG",6.5972124,-1.5789994,48.5972124,48.5972124
"374","Ashanti","Atwima-Kwanwoma","Brofoyedru Eye Adom Maternity Clinic","Clinic","Brofoyedru","Private",6.5972124,-1.5789994,48.5972124,48.5972124
"375","Ashanti","Atwima-Kwanwoma","Nweneso Iii Health Centre","Health Centre","Nwiniso Iii","Government",6.5972124,-1.5789994,48.5972124,48.5972124
"376","Ashanti","Kumasi Metropolitan","4 Medical Research Station","Clinic","Barracks-Bantama","Quasi-Government",6.80813,-1.53933,48.80813,48.80813
"377","Ashanti","Kumasi Metropolitan","Abrafi Memorial Hospital","Hospital","Dichemso","Private",6.81527,-1.59589,48.81527,48.81527
"378","Ashanti","Kumasi Metropolitan","Abu Clinic","Clinic","Ahenbronum-Tafo","Private",9.77791,-1.64411,51.77791,51.77791
"379","Ashanti","Kumasi Metropolitan","Academy Clinic","Clinic","Asokore Mampong","Private",6.78837,-1.56135,48.78837,48.78837
"380","Ashanti","Kumasi Metropolitan","Adabie Hospital","Hospital","Atonsu","Private",6.75486,-1.52744,48.75486,48.75486
"381","Ashanti","Kumasi Metropolitan","Adeb-Sab Maternity Home and Clinic","Maternity Home","Magazine","Private",6.82287,-1.52227,48.82287,48.82287
"382","Ashanti","Kumasi Metropolitan","Aded-Sab Maternity Home","Maternity Home","Maakro","Private",6.84002,-1.55372,48.84002,48.84002
"383","Ashanti","Kumasi Metropolitan","Adom Nyame Clinic","Clinic","Sepe Timpon","Private",6.81614,-1.47675,48.81614,48.81614
"384","Ashanti","Kumasi Metropolitan","Adum Clinic","Clinic","Adum","Private",6.81047,-1.63866,48.81047,48.81047
"385","Ashanti","Kumasi Metropolitan","AG Timbers Clinic","Clinic","Kaase","Quasi-Government",6.78875,-1.56109,48.78875,48.78875
"386","Ashanti","Kumasi Metropolitan","Agyeman Memorial Clinic","Clinic","Adum","Private",6.81462,-1.64877,48.81462,48.81462
"387","Ashanti","Kumasi Metropolitan","Agyenkwa N'adom Clinic","Clinic","Buokrom","Private",6.79962,-1.64543,48.79962,48.79962
"388","Ashanti","Kumasi Metropolitan","Agyenkwa Nyame Clinic","Clinic","Tanoso","Private",6.78507,-1.56655,48.78507,48.78507
"389","Ashanti","Kumasi Metropolitan","Ahmadiya Hospital","Hospital","Sepe Timpon","Private",6.74246,-1.55877,48.74246,48.74246
"390","Ashanti","Kumasi Metropolitan","Ahmadiya Muslim Clinic","Clinic","Boadi","Private",6.83295,-1.47695,48.83295,48.83295
"391","Ashanti","Kumasi Metropolitan","Akyaa Memoria Hospital","Clinic","Makro","Private",6.79089,-1.56091,48.79089,48.79089
"392","Ashanti","Kumasi Metropolitan","Alpha Maternity Home","Maternity Home","Sokoban","Private",6.84819,-1.54934,48.84819,48.84819
"393","Ashanti","Kumasi Metropolitan","Amamata Memorial Maternity Home","Maternity Home","Sawaba","Private",6.84775,-1.56165,48.84775,48.84775
"394","Ashanti","Kumasi Metropolitan","Amanfrom Clinic and Laboratory","Clinic","North Zong-Manhyia","Private",6.77474,-1.63906,48.77474,48.77474
"395","Ashanti","Kumasi Metropolitan","Amoah Memorial Hospital","Hospital","Pankrono","Private",6.77928,-1.49126,48.77928,48.77928
"396","Ashanti","Kumasi Metropolitan","Ampabame Clinic","Clinic","Ampabame","Private",6.76359,-1.61093,48.76359,48.76359
"397","Ashanti","Kumasi Metropolitan","Ampomaa Memorial Maternity Home","Maternity Home","Anwomaso-High Tension","Private",6.79751,-1.50148,48.79751,48.79751
"398","Ashanti","Kumasi Metropolitan","Animah Clinic","Clinic","S-line Atonsu","Private",6.65068,-1.59757,48.65068,48.65068
"399","Ashanti","Kumasi Metropolitan","Animwaa Medical Centre","Hospital","Amena","Private",6.66518,-1.53521,48.66518,48.66518
"400","Ashanti","Kumasi Metropolitan","Anwiam Clinic","Clinic","Afful Nkwanta","Private",6.69071,-1.60138,48.69071,48.69071
"401","Ashanti","Kumasi Metropolitan","Anwomaso Health Centre","Health Centre","Anwomase","Government",6.69163,-1.52678,48.69163,48.69163
"402","Ashanti","Kumasi Metropolitan","Apatrapa Health Centre","Health Centre","Apatrapa","Government",6.70711,-1.68302,48.70711,48.70711
"403","Ashanti","Kumasi Metropolitan","Asihene's Clinic","Clinic","Krofrom","Private",6.71224,-1.61212,48.71224,48.71224
"404","Ashanti","Kumasi Metropolitan","Assalam Clinic","Clinic","Akrome","Private",6.69779,-1.59361,48.69779,48.69779
"405","Ashanti","Kumasi Metropolitan","Asuoyeboa Clinic","Clinic","Asuoyeboa","Private",6.69233,-1.66871,48.69233,48.69233
"406","Ashanti","Kumasi Metropolitan","Atasemanso Hospital","Hospital","Atasemanso","Private",6.65207,-1.63318,48.65207,48.65207
"407","Ashanti","Kumasi Metropolitan","Atsyor Hospital Complex","Hospital","Ataafoa-Pankrono","Private",6.74975,-1.61764,48.74975,48.74975
"408","Ashanti","Kumasi Metropolitan","Atwima Timbers Clinic","Clinic","Asokwa","Quasi-Government",6.66912,-1.61025,48.66912,48.66912
"409","Ashanti","Kumasi Metropolitan","Ayeduasi Health Centre","Health Centre","Ayigya","Government",6.68665,-1.57294,48.68665,48.68665
"410","Ashanti","Kumasi Metropolitan","Ayiwa Maternity Home","Maternity Home","New Suame","Private",6.71566,-1.63377,48.71566,48.71566
"411","Ashanti","Kumasi Metropolitan","Baby Pearl Maternity Home/Clinic","Maternity Home","Buokrom","Private",6.73838,-1.58911,48.73838,48.73838
"412","Ashanti","Kumasi Metropolitan","Bantama Clinic","Clinic","Bantama","Private",6.70515,-1.63551,48.70515,48.70515
"413","Ashanti","Kumasi Metropolitan","Bibiani Logging and Lumber Company Clin","Clinic","Kaase","Quasi-Government",6.66372,-1.60467,48.66372,48.66372
"414","Ashanti","Kumasi Metropolitan","Bilsons Allens Clinic","Clinic","Ahinsan","Private",6.67088,-1.58879,48.67088,48.67088
"415","Ashanti","Kumasi Metropolitan","Bimpeh Hill Clinic","Clinic","New Amakom","Private",6.68167,-1.59926,48.68167,48.68167
"416","Ashanti","Kumasi Metropolitan","Bimpeh Hill Hospital Annex","Clinic","Ashanti New Town","Private",6.70882,-1.61911,48.70882,48.70882
"417","Ashanti","Kumasi Metropolitan","Boatemaa Maternity Home","Maternity Home","Asokore Mampong","Private",6.71371,-1.56683,48.71371,48.71371
"418","Ashanti","Kumasi Metropolitan","Boatemaa Memorial Hospital","Hospital","Asawase","Private",6.70634,-1.60494,48.70634,48.70634
"419","Ashanti","Kumasi Metropolitan","Bomso Specialist Hospital","Hospital","Bomso","Private",6.68453,-1.57888,48.68453,48.68453
"420","Ashanti","Kumasi Metropolitan","Brainok Salvation Clinic","Clinic","Ash Town","Private",6.70479,-1.62295,48.70479,48.70479
"421","Ashanti","Kumasi Metropolitan","Bremang Clinic","Clinic","Bremang","Private",6.74166,-1.63088,48.74166,48.74166
"422","Ashanti","Kumasi Metropolitan","Central Male  Prisons Clinic","Clinic","Adum","Quasi-Government",6.69361,-1.62411,48.69361,48.69361
"423","Ashanti","Kumasi Metropolitan","Central Maternity Home","Maternity Home","Pankrono","Private",6.74944,-1.60418,48.74944,48.74944
"424","Ashanti","Kumasi Metropolitan","Central Maternity Home - ANNEX","Maternity Home","Tafo Zongo","Private",6.73331,-1.63381,48.73331,48.73331
"425","Ashanti","Kumasi Metropolitan","Charity Hospital","Hospital","Kropo","Private",6.71818,-1.64221,48.71818,48.71818
"426","Ashanti","Kumasi Metropolitan","Christ the King Clinic","Clinic","Ahinsan","Private",6.66257,-1.60041,48.66257,48.66257
"427","Ashanti","Kumasi Metropolitan","Church of Christ Mission","Clinic","Bomso","CHAG",6.68583,-1.57932,48.68583,48.68583
"428","Ashanti","Kumasi Metropolitan","City Hospital","Hospital","Stadium","Private",6.68016,-1.60371,48.68016,48.68016
"429","Ashanti","Kumasi Metropolitan","Clinic Ash Town Ltd.","Clinic","Ash Town","Private",6.70518,-1.61943,48.70518,48.70518
"430","Ashanti","Kumasi Metropolitan","Coca Cola Bottling Clinic","Clinic","Ahinsan","Quasi-Government",6.66511,-1.60299,48.66511,48.66511
"431","Ashanti","Kumasi Metropolitan","Cocoa Clinic","Clinic","Cocobod-Adum","Quasi-Government",6.68368,-1.61667,48.68368,48.68368
"432","Ashanti","Kumasi Metropolitan","Comfort Maternity Home","Maternity Home","Oduom","Private",6.69561,-1.54194,48.69561,48.69561
"433","Ashanti","Kumasi Metropolitan","Complementary Clinic","Clinic","Gyinase","Private",6.66235,-1.57597,48.66235,48.66235
"434","Ashanti","Kumasi Metropolitan","Cosmos Clinic","Clinic","Bremang - Azar Junction","Private",6.73039,-1.62736,48.73039,48.73039
"435","Ashanti","Kumasi Metropolitan","County Hospital","Hospital","Abrepo","Private",6.72651,-1.65796,48.72651,48.72651
"436","Ashanti","Kumasi Metropolitan","CPC Maternity and Clinic","Clinic","Amanfrom","Private",6.75543,-1.68412,48.75543,48.75543
"437","Ashanti","Kumasi Metropolitan","Dr. Brown Clinic","Clinic","Mile 3 Old Tafo","Private",6.72655,-1.61519,48.72655,48.72655
"438","Ashanti","Kumasi Metropolitan","Dr. Okyere Piese Clinic","Clinic","Dichemso","Private",6.71091,-1.60751,48.71091,48.71091
"439","Ashanti","Kumasi Metropolitan","Dr. Osei Clinic","Clinic","Akrome","Private",6.69939,-1.59017,48.69939,48.69939
"440","Ashanti","Kumasi Metropolitan","Dr. Quaye Clinic","Clinic","Asuogya","Private",6.71272,-1.64283,48.71272,48.71272
"441","Ashanti","Kumasi Metropolitan","Dunkirk Clinic","Clinic","Bompata","Private",6.69216,-1.61853,48.69216,48.69216
"442","Ashanti","Kumasi Metropolitan","Ebenezer Clinic","Clinic","Anloga","Private",6.67824,-1.59234,48.67824,48.67824
"443","Ashanti","Kumasi Metropolitan","Ebenezer Maternity Home","Maternity Home","Abrepo Junction","Private",6.70995,-1.63812,48.70995,48.70995
"444","Ashanti","Kumasi Metropolitan","Eliza Maternity Home","Maternity Home","Akwatialine","Private",6.69491,-1.60748,48.69491,48.69491
"445","Ashanti","Kumasi Metropolitan","Emahata Clinic","Clinic","Kwadaso","Private",6.69256,-1.65813,48.69256,48.69256
"446","Ashanti","Kumasi Metropolitan","Enec Dental Clinic","Clinic","Ash Town","Private",6.70338,-1.61768,48.70338,48.70338
"447","Ashanti","Kumasi Metropolitan","Faith Clinic","Clinic","Adum","Private",6.69499,-1.62411,48.69499,48.69499
"448","Ashanti","Kumasi Metropolitan","Faith Maternity Home","Maternity Home","Krofrom","Private",6.71477,-1.61574,48.71477,48.71477
"449","Ashanti","Kumasi Metropolitan","Florence Maternity Home","Maternity Home","Anloga","Private",6.68061,-1.59284,48.68061,48.68061
"450","Ashanti","Kumasi Metropolitan","Gansmen's Medical Centre","Clinic","Bremang North","Private",6.74011,-1.62549,48.74011,48.74011
"451","Ashanti","Kumasi Metropolitan","Ghana Brewery Clinic","Clinic","Ahinsan","Quasi-Government",6.66385,-1.60114,48.66385,48.66385
"452","Ashanti","Kumasi Metropolitan","Ghana Guiness Breweries Group Clinic","Clinic","Ahinsan","Quasi-Government",6.65085,-1.60757,48.65085,48.65085
"453","Ashanti","Kumasi Metropolitan","Girbrines Health Services and Clinic","Clinic","Akwatialine Zongo","Private",6.69477,-1.61418,48.69477,48.69477
"454","Ashanti","Kumasi Metropolitan","Gloria Memorial Hospital","Hospital","Akwatialine","Private",6.69488,-1.60754,48.69488,48.69488
"455","Ashanti","Kumasi Metropolitan","God First Clinic","Clinic","Zone 3 Suame","Private",6.71966,-1.62895,48.71966,48.71966
"456","Ashanti","Kumasi Metropolitan","God's Glory Maternity Clinic","Maternity Home","Kronum","Private",6.75109,-1.63885,48.75109,48.75109
"457","Ashanti","Kumasi Metropolitan","Graceland Clinic","Clinic","Bremang","Private",6.74229,-1.63593,48.74229,48.74229
"458","Ashanti","Kumasi Metropolitan","Habitat Sawmill Clinic","Clinic","Kaase","Quasi-Government",6.63872,-1.60925,48.63872,48.63872
"459","Ashanti","Kumasi Metropolitan","Happy Day Maternity Home","Maternity Home","Kronum","Private",6.75545,-1.64439,48.75545,48.75545
"460","Ashanti","Kumasi Metropolitan","Hebrona Hospital","Hospital","Abrepo Junction","Private",6.71107,-1.63417,48.71107,48.71107
"461","Ashanti","Kumasi Metropolitan","Histolic Adventist Clinic","Clinic","Maakro","CHAG",6.73243,-1.63484,48.73243,48.73243
"462","Ashanti","Kumasi Metropolitan","Holy Rosary Maternity Home","Maternity Home","Old Tafo","Private",6.73081,-1.61914,48.73081,48.73081
"463","Ashanti","Kumasi Metropolitan","Humble Maternity Home - Annex","Maternity Home","Pankrono Estate","Private",6.74132,-1.60525,48.74132,48.74132
"464","Ashanti","Kumasi Metropolitan","Islamic Homoepatic Clinic","Clinic","Pankrono Estate","Private",6.74326,-1.60367,48.74326,48.74326
"465","Ashanti","Kumasi Metropolitan","JCM Company Clinic","Clinic","Asokwa","Quasi-Government",6.66571,-1.60766,48.66571,48.66571
"466","Ashanti","Kumasi Metropolitan","Joy Maternity Home Clinic","Clinic","Maakro","Private",6.72375,-1.63436,48.72375,48.72375
"467","Ashanti","Kumasi Metropolitan","Kaase Maternity Home","Maternity Home","Kaase","Private",6.65464,-1.60718,48.65464,48.65464
"468","Ashanti","Kumasi Metropolitan","Kama Clinic","Clinic","Ash Town","Private",6.69851,-1.62143,48.69851,48.69851
"469","Ashanti","Kumasi Metropolitan","Keffam Hospital","Hospital","Buokrom Estate","Private",6.73951,-1.59561,48.73951,48.73951
"470","Ashanti","Kumasi Metropolitan","Kezia Maternity Home and Clinic","Maternity Home","Buokrom","Private",6.72244,-1.59061,48.72244,48.72244
"471","Ashanti","Kumasi Metropolitan","KMA Clinic","Clinic","Adum","Government",6.68488,-1.62353,48.68488,48.68488
"472","Ashanti","Kumasi Metropolitan","KNUST Hospital","Hospital","Ayigya","Quasi-Government",6.68409,-1.57378,48.68409,48.68409
"473","Ashanti","Kumasi Metropolitan","Komfo Anokye Teaching Hospital","Teaching Hospital","Bantama","Government",6.69715,-1.63015,48.69715,48.69715
"474","Ashanti","Kumasi Metropolitan","Kufour Clinic","Clinic","Adum","Private",6.69507,-1.62213,48.69507,48.69507
"475","Ashanti","Kumasi Metropolitan","Kumasi Female Prisons Clinic","Clinic","Adum","CHAG",6.69393,-1.62343,48.69393,48.69393
"476","Ashanti","Kumasi Metropolitan","Kumasi Medical Centre","Clinic","Mbrom Dichemso","Private",6.70454,-1.62448,48.70454,48.70454
"477","Ashanti","Kumasi Metropolitan","Kumasi Medical Centre ANNEX","Clinic","Bremang","Private",6.73926,-1.63626,48.73926,48.73926
"478","Ashanti","Kumasi Metropolitan","Kumasi South Government Hospital","Regional Hospital","Atonsu-Agogo","Government",6.65252,-1.58471,48.65252,48.65252
"479","Ashanti","Kumasi Metropolitan","Kwesamkof New Tafo Clinic","Clinic","New Tafo","Private",6.71623,-1.61588,48.71623,48.71623
"480","Ashanti","Kumasi Metropolitan","Kyei Memorial Hospital","Hospital","Akwatialine","Private",6.69529,-1.61002,48.69529,48.69529
"481","Ashanti","Kumasi Metropolitan","Lake Road Clinic","Clinic","Atonsu","Private",6.66001,-1.59311,48.66001,48.66001
"482","Ashanti","Kumasi Metropolitan","Levenuel Clinic","Clinic","Nkontwima-Bremang","Private",6.73766,-1.62888,48.73766,48.73766
"483","Ashanti","Kumasi Metropolitan","Logs Logging and Lumber Clinic","Clinic","Asokwa","Quasi-Government",6.67284,-1.60822,48.67284,48.67284
"484","Ashanti","Kumasi Metropolitan","Maame Serwa Maternity Home","Maternity Home","Atonsu-Bokro","Private",6.64408,-1.59206,48.64408,48.64408
"485","Ashanti","Kumasi Metropolitan","Maggie's Maternity Home","Maternity Home","Atafoa - Pankrono","Private",6.75131,-1.61758,48.75131,48.75131
"486","Ashanti","Kumasi Metropolitan","Majero Maternity Home and Clinic","Maternity Home","Ampabame","Private",6.71839,-1.65101,48.71839,48.71839
"487","Ashanti","Kumasi Metropolitan","Mammie Maternity Home","Maternity Home","Buokrom Estate","Private",6.74306,-1.59227,48.74306,48.74306
"488","Ashanti","Kumasi Metropolitan","Manhyia Government Hospital","Hospital","Manhyia","Government",6.70396,-1.61191,48.70396,48.70396
"489","Ashanti","Kumasi Metropolitan","Manukure Clinic","Clinic","Bomso","Private",6.68694,-1.57753,48.68694,48.68694
"490","Ashanti","Kumasi Metropolitan","Maranatha Maternity Clinic","Clinic","Asuoyeboa","Private",6.69616,-1.66151,48.69616,48.69616
"491","Ashanti","Kumasi Metropolitan","Mary's Maternity Home","Maternity Home","New Asokwa","Private",6.67783,-1.60169,48.67783,48.67783
"492","Ashanti","Kumasi Metropolitan","Maternal and Child Health Hospital","Hospital","Adum","Government",6.69316,-1.62531,48.69316,48.69316
"493","Ashanti","Kumasi Metropolitan","Matty Memorial Clinic","Clinic","Moshie Zongo","Private",6.72467,-1.60115,48.72467,48.72467
"494","Ashanti","Kumasi Metropolitan","Mavelil Homoe Mission","Clinic","New Suame","Private",6.73165,-1.63384,48.73165,48.73165
"495","Ashanti","Kumasi Metropolitan","Mbrom Hospital","Hospital","Mbrom Dichemso","Private",6.70534,-1.62392,48.70534,48.70534
"496","Ashanti","Kumasi Metropolitan","Medical Center - ANNEX","Clinic","Osborn Junction - Suame","Private",6.73242,-1.62981,48.73242,48.73242
"497","Ashanti","Kumasi Metropolitan","Mintah Afari Maternity Home","Maternity Home","Bompata","Private",6.69429,-1.61605,48.69429,48.69429
"498","Ashanti","Kumasi Metropolitan","Mintah Clinic","Clinic","UGC - Bremang","Private",6.75026,-1.63139,48.75026,48.75026
"499","Ashanti","Kumasi Metropolitan","Moshie Zongo Clinic","Clinic","Moshie Zongo","Private",6.72752,-1.60452,48.72752,48.72752
"500","Ashanti","Kumasi Metropolitan","Naka and St. Ama Hospital","Hospital","Buokrom","Private",6.72976,-1.58603,48.72976,48.72976
"501","Ashanti","Kumasi Metropolitan","New Era Clinic","Clinic","Ayigya","Private",6.68902,-1.57398,48.68902,48.68902
"502","Ashanti","Kumasi Metropolitan","New Era Millennium Hospital","Hospital","Bokro-Atonsu","Private",6.64842,-1.59076,48.64842,48.64842
"503","Ashanti","Kumasi Metropolitan","New Life Maternity  Home and Clinic","Maternity Home","Zongo-Ayigya","Private",6.69232,-1.57003,48.69232,48.69232
"504","Ashanti","Kumasi Metropolitan","New Life Maternity and Clinic","Maternity Home","Anwomase-Bebre","Private",6.69702,-1.53315,48.69702,48.69702
"505","Ashanti","Kumasi Metropolitan","New Tafo Clinic","Clinic","Tafo Nhyiaso","Private",6.71836,-1.61191,48.71836,48.71836
"506","Ashanti","Kumasi Metropolitan","New Town Hospital","Hospital","Ashanti Town","Private",6.69967,-1.61925,48.69967,48.69967
"507","Ashanti","Kumasi Metropolitan","Nkontwima Clinic","Clinic","Nkontwima-Bremang","Private",6.73251,-1.62602,48.73251,48.73251
"508","Ashanti","Kumasi Metropolitan","Nyame ye Maternity Home","Maternity Home","Asawase","Private",6.70131,-1.60595,48.70131,48.70131
"509","Ashanti","Kumasi Metropolitan","Oforikrom Clinic","Clinic","Oforikrom","Private",6.68986,-1.59339,48.68986,48.68986
"510","Ashanti","Kumasi Metropolitan","Omega Sawmill Clinic","Clinic","Kaase","Quasi-Government",6.65812,-1.60441,48.65812,48.65812
"511","Ashanti","Kumasi Metropolitan","Our Lady Maternity Home","Maternity Home","Bokro-Atonsu","Private",6.64775,-1.59059,48.64775,48.64775
"512","Ashanti","Kumasi Metropolitan","Owusuwa Memorial Maternity Maternity","Maternity Home","Adukrom","Private",6.70437,-1.58533,48.70437,48.70437
"513","Ashanti","Kumasi Metropolitan","Owusuaa Maternity Home","Maternity Home","Aboabo","Private",6.69977,-1.59931,48.69977,48.69977
"514","Ashanti","Kumasi Metropolitan","Paradise Maternity and Clinic","Maternity Home","Ayigya","Private",6.68739,-1.57368,48.68739,48.68739
"515","Ashanti","Kumasi Metropolitan","Paul Sagoe Sawmill Clinic","Clinic","Asokwa","Quasi-Government",6.66754,-1.60755,48.66754,48.66754
"516","Ashanti","Kumasi Metropolitan","Peace and Love Hospital","Hospital","Oduom","Private",6.69904,-1.54041,48.69904,48.69904
"517","Ashanti","Kumasi Metropolitan","Peace Land Clinic","Clinic","South Suntreso","Private",6.69002,-1.64039,48.69002,48.69002
"518","Ashanti","Kumasi Metropolitan","Pima Clinic","Clinic","Buokrom Estate","Private",6.74661,-1.59242,48.74661,48.74661
"519","Ashanti","Kumasi Metropolitan","Poku Transport Hospital","Hospital","Asokwa","Private",6.67289,-1.60181,48.67289,48.67289
"520","Ashanti","Kumasi Metropolitan","Police Clinic","Clinic","Adum","Quasi-Government",6.69402,-1.62702,48.69402,48.69402
"521","Ashanti","Kumasi Metropolitan","PPAG Clinic","Clinic","New Suame","Private",6.71789,-1.63674,48.71789,48.71789
"522","Ashanti","Kumasi Metropolitan","PPAG Teen's Centre","Clinic","Oforikrom","Private",6.68805,-1.59241,48.68805,48.68805
"523","Ashanti","Kumasi Metropolitan","Prince of Peace Clinic","Clinic","Aboabo","Private",6.69915,-1.60002,48.69915,48.69915
"524","Ashanti","Kumasi Metropolitan","Quality Health Care Ltd.","Hospital","Kentinkrono","Private",6.69654,-1.55216,48.69654,48.69654
"525","Ashanti","Kumasi Metropolitan","Queen of Peace Maternity Home","Maternity Home","Adoato","Private",6.70981,-1.64148,48.70981,48.70981
"526","Ashanti","Kumasi Metropolitan","Queen Victory Maternity Home","Maternity Home","Anloga","Private",6.67908,-1.59208,48.67908,48.67908
"527","Ashanti","Kumasi Metropolitan","Queens Hospital","Hospital","Dompoase","Private",6.63657,-1.58818,48.63657,48.63657
"528","Ashanti","Kumasi Metropolitan","Rabito Clinic","Clinic","Adum","Private",6.69298,-1.62267,48.69298,48.69298
"529","Ashanti","Kumasi Metropolitan","Railway Clinic","Clinic","Railways Adum","Quasi-Government",6.69196,-1.61926,48.69196,48.69196
"530","Ashanti","Kumasi Metropolitan","Rophi Hospital","Hospital","Old Tafo","Private",6.73026,-1.61204,48.73026,48.73026
"531","Ashanti","Kumasi Metropolitan","Rophii Hospital","Clinic","Akwatialine","Private",6.69504,-1.61193,48.69504,48.69504
"532","Ashanti","Kumasi Metropolitan","Rucky Memorial Maternity Clinic","Maternity Home","Sawaba","Private",6.70227,-1.58091,48.70227,48.70227
"533","Ashanti","Kumasi Metropolitan","Russia Clinic","Clinic","Moshie Zongo","Private",6.72609,-1.60633,48.72609,48.72609
"534","Ashanti","Kumasi Metropolitan","Safo Adu Hosptal","Hospital","Manhyia","Private",6.70301,-1.61371,48.70301,48.70301
"535","Ashanti","Kumasi Metropolitan","Sedom Clinic","Clinic","Bantama","Private",6.70286,-1.63373,48.70286,48.70286
"536","Ashanti","Kumasi Metropolitan","Sepe Dote Clinic","Clinic","Sepe Dote","Private",6.71914,-1.57917,48.71914,48.71914
"537","Ashanti","Kumasi Metropolitan","Sepe-Buokrom Community Clinic","Clinic","Buokrom","Government",6.72118,-1.59593,48.72118,48.72118
"538","Ashanti","Kumasi Metropolitan","Shalom Maternity Home","Maternity Home","Pankrono","Private",6.75172,-1.60518,48.75172,48.75172
"539","Ashanti","Kumasi Metropolitan","Siaw Larbi Hospital","Hospital","Mile 4 - Tafo","Private",6.74196,-1.61304,48.74196,48.74196
"540","Ashanti","Kumasi Metropolitan","Siloam Hospital","Hospital","Kwadaso","Private",6.70008,-1.66115,48.70008,48.70008
"541","Ashanti","Kumasi Metropolitan","Sir Gibrine Memorial Clinic","Clinic","Asawase","Private",6.70138,-1.60467,48.70138,48.70138
"542","Ashanti","Kumasi Metropolitan","Sir Gibrinnes Clinic","Clinic","Akrome","Private",6.70798,-1.57989,48.70798,48.70798
"543","Ashanti","Kumasi Metropolitan","Sir Gilbrenes Memorial Health Centre","Clinic","Sepe-Tinpom","Private",6.70798,-1.57989,48.70798,48.70798
"544","Ashanti","Kumasi Metropolitan","SOS Home Clinic","Clinic","New Suame","Private",6.71352,-1.63055,48.71352,48.71352
"545","Ashanti","Kumasi Metropolitan","St. Annes Clinic","Clinic","Atonsu","Private",6.64886,-1.59209,48.64886,48.64886
"546","Ashanti","Kumasi Metropolitan","St. Anthony Hospital","Hospital","Asuogya","Private",6.72642,-1.64531,48.72642,48.72642
"547","Ashanti","Kumasi Metropolitan","St. Edward Clinic","Clinic","Amakom","Private",6.68972,-1.61009,48.68972,48.68972
"548","Ashanti","Kumasi Metropolitan","St. Helena Maternity Home","Maternity Home","Anwiam","Private",6.69352,-1.54722,48.69352,48.69352
"549","Ashanti","Kumasi Metropolitan","St. John's Clinic","Clinic","Old Tafo","Private",6.72912,-1.61643,48.72912,48.72912
"550","Ashanti","Kumasi Metropolitan","St. Joseph Clinic","Clinic","Krofrom","Private",6.71571,-1.61472,48.71571,48.71571
"551","Ashanti","Kumasi Metropolitan","St. Marku's Hospital","Hospital","Asokwa","Private",6.67022,-1.60013,48.67022,48.67022
"552","Ashanti","Kumasi Metropolitan","St. Paul's Clinic","Clinic","Tafo Zongo","Private",6.73484,-1.60967,48.73484,48.73484
"553","Ashanti","Kumasi Metropolitan","Stadium Clinic","Clinic","Amakom","Private",6.63487,-1.60536,48.63487,48.63487
"554","Ashanti","Kumasi Metropolitan","Suame Hospital","Clinic","Old Tafo","Private",6.73402,-1.61316,48.73402,48.73402
"555","Ashanti","Kumasi Metropolitan","Sunkwa Clinic","Clinic","Anloga","Private",6.67802,-1.59245,48.67802,48.67802
"556","Ashanti","Kumasi Metropolitan","Suntreso Government Hospital","Hospital","Suntreso","Government",6.70243,-1.64223,48.70243,48.70243
"557","Ashanti","Kumasi Metropolitan","Tafo Government Hospital","Hospital","Tafo","Government",6.72554,-1.61317,48.72554,48.72554
"558","Ashanti","Kumasi Metropolitan","Tafo Nhyiaeso Homeopatic Clinic","Clinic","Tafo Nhyiaeso","Private",6.71852,-1.61175,48.71852,48.71852
"559","Ashanti","Kumasi Metropolitan","The Word Maternity Home","Maternity Home","Mile 4- Old Tafo","Private",6.73629,-1.61189,48.73629,48.73629
"560","Ashanti","Kumasi Metropolitan","Tinkwama Maternity Home","Maternity Home","Asuogya","Private",6.72516,-1.64419,48.72516,48.72516
"561","Ashanti","Kumasi Metropolitan","Trust Care Specialist Hospital","Hospital","South Suntreso","Private",6.69042,-1.63979,48.69042,48.69042
"562","Ashanti","Kumasi Metropolitan","Turkson Memorial Maternity Home","Maternity Home","Old Suame","Private",6.71613,-1.62977,48.71613,48.71613
"563","Ashanti","Kumasi Metropolitan","Twumasi Memorial Hospital","Hospital","Asokwa","Private",6.67157,-1.60489,48.67157,48.67157
"564","Ashanti","Kumasi Metropolitan","VAG Clinic","Clinic","Manhyia","Private",6.70121,-1.61249,48.70121,48.70121
"565","Ashanti","Kumasi Metropolitan","Vibro Maternity Home and Clinic","Maternity Home","Anwomase-Bebre","Private",6.69609,-1.53127,48.69609,48.69609
"566","Ashanti","Kumasi Metropolitan","Victory Clinic and Maternity Home","Maternity Home","Ayigya","Private",6.68806,-1.57589,48.68806,48.68806
"567","Ashanti","Kumasi Metropolitan","Vincent Clinic","Clinic","Abed-Pankrono","Private",6.75315,-1.61293,48.75315,48.75315
"568","Ashanti","Kumasi Metropolitan","Washie Hospital","Hospital","Ahodwo Kumasi","Private",6.65263,-1.61921,48.65263,48.65263
"569","Ashanti","Kumasi Metropolitan","Washington Clinic","Clinic","Old Tafo","Private",6.72868,-1.61237,48.72868,48.72868
"570","Ashanti","Kumasi Metropolitan","Wesley Cathederal Clinic","Clinic","Adum","CHAG",6.69362,-1.62325,48.69362,48.69362
"571","Ashanti","Kumasi Metropolitan","Wilben Dental Clinic","Hospital","Dr. Mensah - Ash Town","Private",6.70013,-1.61951,48.70013,48.70013
"572","Ashanti","Kumasi Metropolitan","Wisdom Hospital","Hospital","Dichemso","Private",6.70875,-1.61056,48.70875,48.70875
"573","Ashanti","Kumasi Metropolitan","Yeji Medical Clinic","Clinic","Bremang","Private",6.74085,-1.64022,48.74085,48.74085
"574","Ashanti","Kumasi Metropolitan","Yentumi Boitey Memorial Clinic","Clinic","Susanso","Private",6.68684,-1.58501,48.68684,48.68684
"575","Ashanti","Kumasi Metropolitan","Zion Hill Clinic","Clinic","Zone 5 - Suame","Private",6.72267,-1.63107,48.72267,48.72267
"576","Ashanti","Kumasi Metropolitan","Zongo Hill Clinic","Clinic","Manhyia Zongo","Private",6.70043,-1.61371,48.70043,48.70043
"577","Ashanti","Kumasi Metropolitan","Kumasi Nurses/Midwifery Training School","Training Institution","Kumasi","Government",6.4148,-1.37507,48.4148,48.4148
"578","Ashanti","Kumasi Metropolitan","Kwadaso Nurses Training College","Training Institution","Kwadaso","Government",6.4148,-1.37507,48.4148,48.4148
"579","Ashanti","Kumasi Metropolitan","Kumasi Ear Nose & Throat","Training Institution","Kumasi","Government",6.4148,-1.37507,48.4148,48.4148
"580","Ashanti","Kumasi Metropolitan","Kumasi Anasthesia","Training Institution","Kumasi","Government",6.415,-1.37548,48.415,48.415
"581","Ashanti","Kumasi Metropolitan","Premier Nursing School (General Nursing)","Training Institution","Kumasi","Private",6.415,-1.37548,48.415,48.415
"582","Ashanti","Kumasi Metropolitan","Asawasi Boakye Dunkwa Hospital","Hospital","Asawasi","Private",6.415,-1.37548,48.415,48.415
"583","Ashanti","Kumasi Metropolitan","Effah Hospital","Hospital","Buokrom Estate","Private",6.415,-1.37548,48.415,48.415
"584","Ashanti","Kumasi Metropolitan","Moshie Zongo Russia Clinic","Clinic","Moshie Zongo","Private",6.415,-1.37548,48.415,48.415
"585","Ashanti","Kumasi Metropolitan","Ashanti Town Clinic","Clinic","Ashanti Town","Private",6.415,-1.37548,48.415,48.415
"586","Ashanti","Kumasi Metropolitan","Asawasi Nyame Ye Maternity Home","Maternity Home","Asawasi","Private",6.415,-1.37548,48.415,48.415
"587","Ashanti","Kumasi Metropolitan","Allen Hospital","Hospital","Dichemso","Private",6.415,-1.37548,48.415,48.415
"588","Ashanti","Kumasi Metropolitan","Ghana Legion Clinic","Clinic","New Zongo","Private",6.415,-1.37548,48.415,48.415
"589","Ashanti","Kumasi Metropolitan","New Asawasi Clinic","Clinic","Asawasi","Private",6.415,-1.37548,48.415,48.415
"590","Ashanti","Kumasi Metropolitan","Bomso Clinic","Clinic","Bomso","Private",6.415,-1.37548,48.415,48.415
"591","Ashanti","Kumasi Metropolitan","Muslim Homeopathic Clinic","Clinic","Boadi","Private",6.415,-1.37548,48.415,48.415
"592","Ashanti","Kumasi Metropolitan","Allen's Clinic","Clinic","Ahensan","Private",6.415,-1.37548,48.415,48.415
"593","Ashanti","Kumasi Metropolitan","Ayigya Clinic","Clinic","Ayigya","Private",6.415,-1.37548,48.415,48.415
"594","Ashanti","Kumasi Metropolitan","Born Again Homeopathic","Clinic","Adukrom","Private",6.415,-1.37548,48.415,48.415
"595","Ashanti","Kumasi Metropolitan","Homeopathic Clinic","Clinic","Nsene","Private",6.415,-1.37548,48.415,48.415
"596","Ashanti","Kumasi Metropolitan","Maud Maternity Home","Maternity Home","Ahensan","Private",6.415,-1.37548,48.415,48.415
"597","Ashanti","Kumasi Metropolitan","Amansie Enterprise Clinic","Clinic","","Private",6.415,-1.37548,48.415,48.415
"598","Ashanti","Kumasi Metropolitan","John Bitar Company Clinic","Clinic","Ahensan","Private",6.415,-1.37548,48.415,48.415
"599","Ashanti","Kumasi Metropolitan","Bosomtwi Clinic","Clinic","Aboabo Akorem","Private",6.415,-1.37548,48.415,48.415
"600","Ashanti","Kumasi Metropolitan","Atonsu-Agogo Clinic","Clinic","Anloga","Private",6.415,-1.37548,48.415,48.415
"601","Ashanti","Kumasi Metropolitan","Abrepo County Hospital","Hospital","Abrepo","Private",6.415,-1.37548,48.415,48.415
"602","Ashanti","Kumasi Metropolitan","West End Clinic","Clinic","Patasi","Private",6.415,-1.37548,48.415,48.415
"603","Ashanti","Kumasi Metropolitan","SDA Hospital","Hospital","Kwadaso","Private",6.415,-1.37548,48.415,48.415
"604","Ashanti","Kumasi Metropolitan","Prempeh College Clinic","Clinic","Prempeh Compus","Government",6.415,-1.37548,48.415,48.415
"605","Ashanti","Kumasi Metropolitan","Patasi Suame Nkwanta Hospital","Hospital","Patasi","Private",6.415,-1.37548,48.415,48.415
"606","Ashanti","Kumasi Metropolitan","Asafo Agyei Hospital","Hospital","Daaban","Private",6.415,-1.37548,48.415,48.415
"607","Ashanti","Kumasi Metropolitan","Magazine Clinic","Clinic","Danyame","Private",6.415,-1.37548,48.415,48.415
"608","Ashanti","Kumasi Metropolitan","Togbe Clinic","Clinic","Adiembra","Private",6.415,-1.37548,48.415,48.415
"609","Ashanti","Kumasi Metropolitan","Mary Pomaa Memorial Clinic","Clinic","Odeneho Kwadaso","Private",6.415,-1.37548,48.415,48.415
"610","Ashanti","Kumasi Metropolitan","Robert Khock Health Services","Clinic","Bantama","Private",6.415,-1.37548,48.415,48.415
"611","Ashanti","Kumasi Metropolitan","Adiebeba Hospital","Hospital","Adiebeba","Private",6.415,-1.37548,48.415,48.415
"612","Ashanti","Kumasi Metropolitan","Ahodwo Clinic","Clinic","Ahodwo","Private",6.415,-1.37548,48.415,48.415
"613","Ashanti","Kumasi Metropolitan","Ahodwo Washie Hospital","Hospital","Ahodwo","Private",6.415,-1.37548,48.415,48.415
"614","Ashanti","Kumasi Metropolitan","Philip Maternity Home","Maternity Home","Tanoso","Private",6.415,-1.37548,48.415,48.415
"615","Ashanti","Kumasi Metropolitan","Hebrona Hospital","Hospital","Sokoban","Private",6.415,-1.37548,48.415,48.415
"616","Ashanti","Kumasi Metropolitan","Agyei Eli Hospital","Hospital","Sokoban","Private",6.415,-1.37548,48.415,48.415
"617","Ashanti","Kumasi Metropolitan","Aurora Clinic","Clinic","Dakodwom","Private",6.415,-1.37548,48.415,48.415
"618","Ashanti","Kumasi Metropolitan","St. Anthony Homeopathic Clinic","Clinic","Bohyen","Private",6.415,-1.37548,48.415,48.415
"619","Ashanti","Kumasi Metropolitan","St. Monica Maternity Hme","Maternity Home","Ampabame","Private",6.415,-1.37548,48.415,48.415
"620","Ashanti","Kumasi Metropolitan","Amanfrom Clinic","Clinic","Amanfrom","Private",6.415,-1.37548,48.415,48.415
"621","Ashanti","Kumasi Metropolitan","Santasi Clinic","Clinic","Santasi","Private",6.415,-1.37548,48.415,48.415
"622","Ashanti","Kumasi Metropolitan","Boampong Hospital","Hospital","Santasi","Private",6.415,-1.37548,48.415,48.415
"623","Ashanti","Kumasi Metropolitan","Asadu Maternity Home","Maternity Home","Sokoban","Private",6.415,-1.37548,48.415,48.415
"624","Ashanti","Kumasi Metropolitan","Living Waters Maternity Home","Maternity Home","Odeneho Kwadaso","Private",6.415,-1.37548,48.415,48.415
"625","Ashanti","Kumasi Metropolitan","Yonkodo Maternity Home","Maternity Home","South Suntreso","Private",6.415,-1.37548,48.415,48.415
"626","Ashanti","Kumasi Metropolitan","UEWK Sick Bay","Clinic","Tanoso","Private",6.415,-1.37548,48.415,48.415
"627","Ashanti","Kumasi Metropolitan","Restoration Clinic","Clinic","","Private",6.415,-1.37548,48.415,48.415
"628","Ashanti","Kumasi Metropolitan","Calvary Maternity Home","Maternity Home","Nwamasi","Private",6.415,-1.37548,48.415,48.415
"629","Ashanti","Kumasi Metropolitan","Divine Maternity Home","Maternity Home","Kwadaso Estate","Private",6.415,-1.37548,48.415,48.415
"630","Ashanti","Kumasi Metropolitan","Kpodo Maternity Home","Maternity Home","Kpodo","Private",6.415,-1.37548,48.415,48.415
"631","Ashanti","Kumasi Metropolitan","Tiwaa Acupuncture","Clinic","Ohwimase","Private",6.415,-1.37548,48.415,48.415
"632","Ashanti","Kumasi Metropolitan","Tafo Nhyiaeso Bethel Clinic","Clinic","Tafo Nhyiaeso","Private",6.415,-1.37548,48.415,48.415
"633","Ashanti","Kumasi Metropolitan","St. John's Clinic","Clinic","Manhyia Extension","Private",6.415,-1.37548,48.415,48.415
"634","Ashanti","Kumasi Metropolitan","New Birth Maternity Home","Maternity Home","Old Tafo","Private",6.415,-1.37548,48.415,48.415
"635","Ashanti","Kumasi Metropolitan","Neuro-Psych Hospital","Hospital","Pankrono","Private",6.415,-1.37548,48.415,48.415
"636","Ashanti","Kumasi Metropolitan","Prisons Clinic","Clinic","Adum","Quasi-Government",6.415,-1.37548,48.415,48.415
"637","Ashanti","Kumasi Metropolitan","Amakom Clinic","Clinic","Amakom","Private",6.415,-1.37548,48.415,48.415
"638","Ashanti","Kumasi Metropolitan","Methodist Cathederal Church Clinic","Clinic","Adum","CHAG",6.415,-1.37548,48.415,48.415
"639","Ashanti","Sekyere Afram Plains","Jesus Care Voluntary Clinic","Clinic","Besoro","CHAG",7.5090674,-0.8234483,49.5090674,49.5090674
"640","Ashanti","Sekyere Afram Plains","Asesewa CHPS","CHPS","Anyinofi","Government",7.5090674,-0.8234483,49.5090674,49.5090674
"641","Ashanti","Sekyere Afram Plains","Dawia CHPS","CHPS","Dawia","Government",7.5090674,-0.8234483,49.5090674,49.5090674
"642","Ashanti","Sekyere Afram Plains","Funsua CHPS","CHPS","Fusua","Government",7.5090674,-0.8234483,49.5090674,49.5090674
"643","Ashanti","Sekyere Afram Plains","Hamidu CHPS","CHPS","Fusua","Government",7.5090674,-0.8234483,49.5090674,49.5090674
"644","Ashanti","Bekwai Municipal","Boni Clinic","Clinic","Boni","Government",6.45,-1.5833333,48.45,48.45
"645","Ashanti","Sekyere Central","Birem Health Centre","Health Centre","Birem","Government",7.2169497,-2.1843285,49.2169497,49.2169497
"646","Ashanti","Mampong Municipal","Calvary Health Service","Clinic","","Private",7.03397,-1.24294,49.03397,49.03397
"647","Ashanti","Mampong Municipal","Yonso CHPS","CPHS","Yonso","Government",7.03397,-1.24294,49.03397,49.03397
"648","Ashanti","Kwabre","Kwabre District Health Directorate","District Health Directorate","Mamponteng","Government",6.77884,-1.54569,48.77884,48.77884
"649","Ashanti","Kwabre","Antoa Health Centre","Health Centre","Antoa","Government",6.75748,-1.52574,48.75748,48.75748
"650","Ashanti","Kwabre","African Diaspora Clinic & Maternity Home","Clinic","Abirem","Private",6.75053,-1.54224,48.75053,48.75053
"651","Ashanti","Afigya-Kwabre","Brofoyedru Health Centre","Health Centre","Brofoyedru","Government",6.47265,-1.37389,48.47265,48.47265
"652","Ashanti","Afigya-Kwabre","PACKS Hospital","Hospital","Afrancho","Private",6.47265,-1.37389,48.47265,48.47265
"653","Ashanti","Afigya-Kwabre","Hilltop Hospital","Hospital","Buoho","Private",6.47265,-1.37389,48.47265,48.47265
"654","Ashanti","Offinso Municipal","Offinso District Health Directorate","District Health Directorate","","Government",6.56309,-1.40268,48.56309,48.56309
"655","Ashanti","Offinso Municipal","Anyinasuso SDA Clinc","Clinic","Anyinasuso","CHAG",7.0102,-1.42346,49.0102,49.0102
"656","Ashanti","Offinso Municipal","Abofour Health Centre","Health Centre","Abofour","Government",7.07473,-1.43587,49.07473,49.07473
"657","Ashanti","Offinso Municipal","Amoawi Community Clinic","Clinic","Amoawi","Private",6.57199,-1.41169,48.57199,48.57199
"658","Ashanti","Offinso Municipal","Kwagyekrom CHPS","CHPS","Kokoben","Government",7.02111,-1.46379,49.02111,49.02111
"659","Brong Ahafo","Asunafo North Municipal","Ayomso Rural Clinic","Clinic","Ayomso","Government",6.76364,-2.58248,48.76364,48.76364
"660","Brong Ahafo","Asunafo North Municipal","Fawohoyeden Clinic","Clinic","Fawohoyeden","Private",6.7375,-2.57282,48.7375,48.7375
"661","Brong Ahafo","Asunafo North Municipal","Ayum Forest Clinic","Clinic","Mim","Government",6.90647,-2.56449,48.90647,48.90647
"662","Brong Ahafo","Asunafo North Municipal","Agyei Mensah Maternity Home","Maternity Home","Gaoso","Private",6.80205,-2.51738,48.80205,48.80205
"663","Brong Ahafo","Asunafo North Municipal","MIM Clinic","Clinic","Mim","Private",6.91361,-2.56503,48.91361,48.91361
"664","Brong Ahafo","Asunafo North Municipal","District Assembly Maternity Home","Maternity Home","Mim","Government",6.9004,-2.5589,48.9004,48.9004
"665","Brong Ahafo","Asunafo North Municipal","Goaso Hospital","District Hospital","Goaso","Government",6.8057,-2.52181,48.8057,48.8057
"666","Brong Ahafo","Asunafo North Municipal","Dankwa Maternity Home","Maternity Home","Kasapin","Private",6.94324,-2.80505,48.94324,48.94324
"667","Brong Ahafo","Asunafo North Municipal","Church of Pentecost Clinic","Clinic","Kasapin","CHAG",6.94076,-2.81154,48.94076,48.94076
"668","Brong Ahafo","Asunafo North Municipal","Ampenkro Health Centre","Centre","Ampenkro","Government",6.94356,-2.76328,48.94356,48.94356
"669","Brong Ahafo","Asunafo North Municipal","Asunafo North District Health Directorate","District Health Directorate","Goaso","Government",6.8057,-2.52181,48.8057,48.8057
"670","Brong Ahafo","Asunafo North Municipal","Asumura Rural Clinic","Clinic","Asumura","Government",6.69184,-2.56169,48.69184,48.69184
"671","Brong Ahafo","Asunafo North Municipal","Akrodie Health Centre","Health Centre","Akrodie","Government",6.69505,-2.5569,48.69505,48.69505
"672","Brong Ahafo","Asunafo South","Kukuom Health Centre","Health Centre","Kukuom","Government",6.69659,-2.43872,48.69659,48.69659
"673","Brong Ahafo","Asunafo South","Kwapong Rural Clinic","Clinic","Kwapong","Government",6.6227,-2.47506,48.6227,48.6227
"674","Brong Ahafo","Asunafo South","Vic Maternity Home","Maternity Home","Norbeko","Private",6.6507,-2.42445,48.6507,48.6507
"675","Brong Ahafo","Asunafo South","Sankore Health Centre","Health Centre","Sankore","Government",6.50285,-2.5017,48.50285,48.50285
"676","Brong Ahafo","Asunafo South","Kokooso  Rural Clinic","Clinic","Kokooso","Government",6.64344,-2.58633,48.64344,48.64344
"677","Brong Ahafo","Asunafo South","Abuom Rural Clinic","Clinic","Abuom","Government",6.61944,-2.70631,48.61944,48.61944
"678","Brong Ahafo","Asunafo South","Asarekrom Rural Clinic","Clinic","Asarekrom","Government",6.57574,-2.63918,48.57574,48.57574
"679","Brong Ahafo","Asutifi","Acherensua Health Centre","Health Centre","Acherensua","Government",6.98211,-2.32174,48.98211,48.98211
"680","Brong Ahafo","Asutifi","Dadiesoaba Health Centre","Health Centre","Dadiesoaba","Government",6.77932,-2.41997,48.77932,48.77932
"681","Brong Ahafo","Asutifi","Sienkyemu Rural Clinic","Clinic","Siekyemu","Government",6.70723,-2.39529,48.70723,48.70723
"682","Brong Ahafo","Asutifi","Nyameadom Maternity  Home","Maternity Home","Twabidi No.1","Government",6.83205,-2.362,48.83205,48.83205
"683","Brong Ahafo","Asutifi","Gambia No1 Rural Clinic","Clinic","Gambia  No.1","Government",7.0378,-2.6357,49.0378,49.0378
"684","Brong Ahafo","Asutifi","Gyedu Health Center","Health Centre","Gyedu","Government",7.06875,-2.3248,49.06875,49.06875
"685","Brong Ahafo","Asutifi","Nkasiem Community Clinic","Clinic","Nkasiem","Government",6.86509,-2.44891,48.86509,48.86509
"686","Brong Ahafo","Asutifi","St.Elizabeth Hospital","Hospital","Hwidiem","CHAG",6.93279,-2.35805,48.93279,48.93279
"687","Brong Ahafo","Asutifi","St. Elizabeth Maternity Home","Maternity Home","Nkensere","Private",6.99387,-2.53687,48.99387,48.99387
"688","Brong Ahafo","Asutifi","Esther Nyarko Maternity Home","Maternity Home","Kenyasi","Private",6.98035,-2.38637,48.98035,48.98035
"689","Brong Ahafo","Asutifi","Kenyasi Health Centre","Health Centre","Kenyasi","Government",6.97533,-2.3857,48.97533,48.97533
"690","Brong Ahafo","Asutifi","Asutifi District Health Directorate","District Health Directorate","Kenyasi","Government",6.97533,-2.3857,48.97533,48.97533
"691","Brong Ahafo","Atebubu-Amanten","Akokoa Health Centre","Health Centre","Akokoa","Government",7.58462,-1.15377,49.58462,49.58462
"692","Brong Ahafo","Atebubu-Amanten","Amanteng Health Centre","Health Centre","Amanteng","Government",7.53828,-1.20795,49.53828,49.53828
"693","Brong Ahafo","Atebubu-Amanten","Jato Zongo Rural Clinic","Clinic","Jato Zongo","Government",7.65363,-1.06465,49.65363,49.65363
"694","Brong Ahafo","Atebubu-Amanten","Atebubu RCH/FP Clinic","Clinic","Atebubu","Government",7.74799,-0.98207,49.74799,49.74799
"695","Brong Ahafo","Atebubu-Amanten","Atebubu Government Hospital","District Hospital","Atebubu","Government",7.74807,-0.98197,49.74807,49.74807
"696","Brong Ahafo","Atebubu-Amanten","Atebubu-Amanten District Health Directorate","District Health Directorate","Atebubu","Government",7.74557,-0.98877,49.74557,49.74557
"697","Brong Ahafo","Berekum Municipal","Christie Maternity Home","Maternity Home","Berekum","Private",7.46482,-2.57323,49.46482,49.46482
"698","Brong Ahafo","Berekum Municipal","Aggie Maternity Home","Maternity Home","Berekum","Private",7.45745,-2.58685,49.45745,49.45745
"699","Brong Ahafo","Berekum Municipal","Palm Avenue Maternity Home","Maternity Home","Berekum","Private",7.44315,-2.58212,49.44315,49.44315
"700","Brong Ahafo","Berekum Municipal","Mpatasei Rural Clinic","Clinic","Mpatasei","Government",7.457,-2.58338,49.457,49.457
"701","Brong Ahafo","Berekum Municipal","Philomina Maternity Home","Maternity Home","Berekum","Private",7.45795,-2.60001,49.45795,49.45795
"702","Brong Ahafo","Berekum Municipal","Berekum Nurses/Midwifery Training College","Training Institution","Berekum","Government",7.44325,-2.58805,49.44325,49.44325
"703","Brong Ahafo","Berekum Municipal","Angels maternity home","Maternity Home","Berekum","Private",7.46191,-2.59254,49.46191,49.46191
"704","Brong Ahafo","Berekum Municipal","Koraso Rural Clinic","Clinic","Koraso","Government",7.48248,-2.02694,49.48248,49.48248
"705","Brong Ahafo","Berekum Municipal","Akrofro CHPS","CHPS","Akrofro","Private",7.49397,-2.58871,49.49397,49.49397
"706","Brong Ahafo","Berekum Municipal","Emi Maternity Home","Maternity Home","Berekum","Private",7.45051,-2.57339,49.45051,49.45051
"707","Brong Ahafo","Berekum Municipal","Amomaso Rural Clinic","Clinic","Amomaso","Government",7.37385,-2.65996,49.37385,49.37385
"708","Brong Ahafo","Berekum Municipal","Berekum Zongo RCH/FP Clinic","Clinic","Berekum Zongo","Government",7.45371,-2.58284,49.45371,49.45371
"709","Brong Ahafo","Berekum Municipal","ABTS Clinic","Clinic","Berekum","Government",7.44034,-2.60347,49.44034,49.44034
"710","Brong Ahafo","Berekum Municipal","Bre Nye Kwa Hospital","Hospital","Berekum","Government",7.44372,-2.59325,49.44372,49.44372
"711","Brong Ahafo","Berekum Municipal","Holy Family Hospital","Hospital","Berekum","Private",7.44325,-2.58806,49.44325,49.44325
"712","Brong Ahafo","Berekum Municipal","Botokrom Rural Clinic","Clinic","Botokrom","Government",7.5228,-2.72249,49.5228,49.5228
"713","Brong Ahafo","Berekum Municipal","Jinijini Health Centre","Health Centre","Jinijini","Government",7.44656,-2.64642,49.44656,49.44656
"714","Brong Ahafo","Berekum Municipal","Berekum District Health Directorate","District Health Directorate","Berekum","Government",7.44462,-2.57926,49.44462,49.44462
"715","Brong Ahafo","Dormaa Municipal","Amasu Rural Clinic","Clinic","Ammasua","Government",7.22802,-2.95807,49.22802,49.22802
"716","Brong Ahafo","Dormaa East","Kyeremasu Rural Clinic","Clinic","Kyeremasu","Government",7.26312,-2.76114,49.26312,49.26312
"717","Brong Ahafo","Dormaa Municipal","Kwameasua Presby Clinic","Clinic","Kwameasua","Government",7.16715,-2.7701,49.16715,49.16715
"718","Brong Ahafo","Dormaa Municipal","Aboabo Presby Clinic","Clinic","Aboabo","CHAG",7.20647,-2.81057,49.20647,49.20647
"719","Brong Ahafo","Dormaa Municipal","Asikasu Rural Clinic","Clinic","Asikasu","Government",7.1893,-2.89066,49.1893,49.1893
"720","Brong Ahafo","Dormaa Municipal","Danyami Rural Clinic","Clinic","Danyame","Government",7.34172,-2.8792,49.34172,49.34172
"721","Brong Ahafo","Dormaa Municipal","Dormaa Presby Hospital","District Hospital","Dormaa","Government",7.27537,-2.86803,49.27537,49.27537
"722","Brong Ahafo","Dormaa Municipal","Dormaa PHC Project","Clinic","Dormaa","Government",7.27434,-2.86719,49.27434,49.27434
"723","Brong Ahafo","Dormaa Municipal","Ohenewaa Maternity Home","Clinic","Dormaa","Government",7.27435,-2.87338,49.27435,49.27435
"724","Brong Ahafo","Dormaa Municipal","Dormaa RCH/FP","RCH","Dormaa","Government",7.27277,-2.87009,49.27277,49.27277
"725","Brong Ahafo","Dormaa East","Dormaa Akwamu Health Centre","Health Centre","Dormaa Akwamu","Government",7.31711,-2.73729,49.31711,49.31711
"726","Brong Ahafo","Dormaa East","Akontanim Rural Clinic","Clinic","Akontanim","Government",7.30811,-2.71819,49.30811,49.30811
"727","Brong Ahafo","Dormaa Municipal","Kofibadukrom Port Health","Health Centre","Kofibadukrom","Government",7.28896,-2.97238,49.28896,49.28896
"728","Brong Ahafo","Dormaa Municipal","Kojokumikrom Rural Clinic","Clinic","Kojokumikrom","Government",7.29063,-2.91397,49.29063,49.29063
"729","Brong Ahafo","Dormaa Municipal","K/Dwomokrom Rural Clinic","Clinic","Dwomokrom","Government",7.29054,-2.90378,49.29054,49.29054
"730","Brong Ahafo","Dormaa Municipal","Dormaa District Health Directorate","District Health Directorate","Dormaa","Government",7.27435,-2.87004,49.27435,49.27435
"731","Brong Ahafo","Dormaa Municipal","Kwaben Maternity Home","Maternity Home","Yuwusukrom","Private",7.00092,-3.0862,49.00092,49.00092
"732","Brong Ahafo","Dormaa Municipal","Nkrankwanta Health Centre","Health Centre","Nkrankwanta","Government",7.01987,-3.0862,49.01987,49.01987
"733","Brong Ahafo","Dormaa Municipal","Ceci Maternity Home","Maternity Home","Nkrankwanta","Government",7.01659,-3.04393,49.01659,49.01659
"734","Brong Ahafo","Dormaa East","Wamfie Health Centre","Health Centre","Wamfi","Government",7.30582,-2.73729,49.30582,49.30582
"735","Brong Ahafo","Dormaa East","Bishop Mathew Gyamfi's Clinic","Clinic","Wamanafo","CHAG",7.26224,-2.71568,49.26224,49.26224
"736","Brong Ahafo","Dormaa East","Racheal Maternity Home","Health Centre","Wamanafo","Private",7.26604,-2.71549,49.26604,49.26604
"737","Brong Ahafo","Jaman North","Buni Community Clinic","Clinic","Buni","Government",7.80201,-2.6424,49.80201,49.80201
"738","Brong Ahafo","Jaman North","Asiri Rural Clinic","Clinic","Asiri","Government",7.80156,-2.70684,49.80156,49.80156
"739","Brong Ahafo","Jaman North","Asuokor Rural Clinic","CHPS","Asuoko.","Government",7.73363,-2.61549,49.73363,49.73363
"740","Brong Ahafo","Jaman North","Goka Health Centre","Health Centre","Goka","Government",7.75868,-2.65616,49.75868,49.75868
"741","Brong Ahafo","Jaman North","Johnsons Rural Clinic","Clinic","Goka","Quasi-Government",7.7653,-2.65532,49.7653,49.7653
"742","Brong Ahafo","Jaman North","Sampa District Hospital","District Hospital",".Sampa","Government",7.95085,-2.695,49.95085,49.95085
"743","Brong Ahafo","Jaman North","Holy Daniel's Clinic","Clinic","Sampa","Government",7.95075,-2.69753,49.95075,49.95075
"744","Brong Ahafo","Jaman North","Suma Presby Clinic","Clinic","Suma","CHAG",7.91843,-2.71607,49.91843,49.91843
"745","Brong Ahafo","Jaman North","Seketia Rural Clinic","Clinic","Seketia","Government",7.8156,-2.74399,49.8156,49.8156
"746","Brong Ahafo","Jaman South","Abirikasu Health Centre","Health Centre","Abirikasu","Government",7.49369,-2.82997,49.49369,49.49369
"747","Brong Ahafo","Jaman South","Angel's Maternity Home","Maternity Home","Atuna","Government",7.50335,-2.91504,49.50335,49.50335
"748","Brong Ahafo","Jaman South","St. Mary's Hospital","Hospital","Drobo","Private",7.58599,-2.78549,49.58599,49.58599
"749","Brong Ahafo","Jaman South","Jejemirija Presby Clinic","Clinic","Jejemiraja","Government",7.63384,-2.72654,49.63384,49.63384
"750","Brong Ahafo","Jaman South","Elizabeth Maternity Home","Maternity Home","Dwenem","CHAG",7.68227,-2.78494,49.68227,49.68227
"751","Brong Ahafo","Jaman South","Drobo RCH/FP","Clinic","Drobo","Government",7.5872,-2.78657,49.5872,49.5872
"752","Brong Ahafo","Jaman South","Dwenem Rural Clinic","Clinic","Dwenem","Government",7.68138,-2.78094,49.68138,49.68138
"753","Brong Ahafo","Jaman South","Baano Rural Clinic","Clinic","Baano","Government",7.60977,-2.90541,49.60977,49.60977
"754","Brong Ahafo","Jaman South","Vida's Maternity Home","Maternity Home","Kwameseikrom","Private",7.63643,-2.90541,49.63643,49.63643
"755","Brong Ahafo","Jaman South","Gonasua Health Centre","Health Centre","Gonasua","Government",7.58836,-2.82208,49.58836,49.58836
"756","Brong Ahafo","Jaman South","Zezera Health Centre","Health Centre","Zezera","Private",7.73358,-2.86322,49.73358,49.73358
"757","Brong Ahafo","Jaman South","St. Micheal Maternity Home","Maternity Home","Adamsu","Private",7.74365,-2.80623,49.74365,49.74365
"758","Brong Ahafo","Jaman South","Adiokor Rural Clinic","Clinic","Adiokor","Private",7.75029,-2.85133,49.75029,49.75029
"759","Brong Ahafo","Jaman South","Adamsu Health Centre","Health Centre","Adamsu","Government",7.7533,-2.80712,49.7533,49.7533
"760","Brong Ahafo","Jaman South","Bodaa Rural Clinic","Clinic","Bodaa","Government",7.78135,-2.82046,49.78135,49.78135
"761","Brong Ahafo","Jaman South","Saviour's Maternity Home","Maternity Home","Kofitiakrom","Private",7.77289,-2.84769,49.77289,49.77289
"762","Brong Ahafo","Jaman South","Asare Rural Clinic","Clinic","Asare","Government",7.76307,-2.76607,49.76307,49.76307
"763","Brong Ahafo","Jaman North","Jeman North District Health Directorate","District Health Directorate","Sampa","Government",7.95037,-2.69579,49.95037,49.95037
"764","Brong Ahafo","Jaman South","Jaman South District Health Directorate","District Health Directorate","Drobo","Government",7.59374,-2.78768,49.59374,49.59374
"765","Brong Ahafo","Kintampo North Municipal","Busuama Rural Clinic","Clinic","Busuama","Government",8.23236,-1.85531,50.23236,50.23236
"766","Brong Ahafo","Kintampo North Municipal","Dawadawa Health Centre","Health Centre","Dawadawa","Government",8.35529,-1.56645,50.35529,50.35529
"767","Brong Ahafo","Kintampo North Municipal","Kintampo District Hospital","District Hospital","Kintampo","Government",8.05098,-1.7312,50.05098,50.05098
